"stop_id","stop_name","stop_desc","stop_lat","stop_lon"
18848,"Clínicas","",-23.554190,-46.670723
18849,"Vila Madalena","",-23.546720,-46.690738
18850,"Consolação","",-23.557501,-46.660872
18851,"Conceição","",-23.636214,-46.641141
18852,"Jabaquara","",-23.645754,-46.642084
18853,"São Judas","",-23.625580,-46.640778
18854,"Saúde","",-23.618285,-46.639148
18855,"Praça Da Árvore","",-23.610578,-46.637848
18856,"Santa Cruz","",-23.599225,-46.636659
18857,"Vila Mariana","",-23.589541,-46.634701
18858,"Brigadeiro","",-23.568277,-46.648152
18859,"Trianon-masp","",-23.562506,-46.655163
18860,"Ana Rosa","",-23.581203,-46.638489
18861,"Paraíso","",-23.574932,-46.640563
18862,"Vergueiro","",-23.568994,-46.639858
18863,"São Joaquim","",-23.561912,-46.638652
18864,"Marechal Deodoro","",-23.533985,-46.655728
18865,"Santa Cecília","",-23.538694,-46.649732
18866,"República","",-23.544375,-46.642815
18867,"Anhangabaú","",-23.547916,-46.639324
18868,"Liberdade","",-23.554724,-46.635598
18869,"Sé","",-23.550634,-46.633326
18870,"São Bento","",-23.543959,-46.633788
18871,"Pedro II","",-23.549809,-46.625474
18872,"Luz","",-23.537691,-46.633687
18873,"Tiradentes","",-23.530857,-46.631959
18874,"Armênia","",-23.525545,-46.629317
18875,"Bresser-mooca","",-23.546596,-46.607323
18876,"Belem","",-23.543118,-46.589599
18877,"Portuguesa-tietê","",-23.516587,-46.625123
18878,"Carandiru","",-23.509654,-46.624910
18879,"Santana","",-23.502724,-46.624716
18880,"Jardim São Paulo-ayrton Senna","",-23.492233,-46.616687
18881,"Parada Inglesa","",-23.487111,-46.608877
18882,"Tucuruvi","",-23.480048,-46.603211
18883,"Carrão","",-23.537601,-46.563637
18884,"Penha","",-23.533648,-46.543950
18885,"Vila Matilde","",-23.531903,-46.530539
18886,"Guilhermina Esperança","",-23.529195,-46.516734
18887,"Patriarca","",-23.531079,-46.501715
18888,"Artur Alvim","",-23.540339,-46.484424
18889,"Eng. Goulart","",-23.498151,-46.520070
18890,"Corinthians-itaquera","",-23.542080,-46.471379
18891,"Comendador Ermelino","",-23.485502,-46.482897
18892,"Dom Bosco","",-23.541380,-46.448073
18893,"José Bonifácio","",-23.539153,-46.430731
18894,"Antonio Gianetti Neto","",-23.554384,-46.383661
18895,"Guaianazes","",-23.542271,-46.415587
18897,"Itaim Paulista","",-23.493868,-46.402469
18898,"Ferraz De Vasconcelos","",-23.541440,-46.368811
18899,"Poá","",-23.525922,-46.343646
18900,"Eng Manoel Feio","",-23.478454,-46.363519
18901,"Calmon Viana","",-23.525573,-46.333636
18902,"Suzano","",-23.533832,-46.309381
18906,"Santo Amaro","",-23.655916,-46.719686
18907,"Jurubatuba","",-23.677433,-46.702485
18908,"Socorro","",-23.663788,-46.710806
18909,"Granja Julieta","",-23.627424,-46.711956
18910,"Morumbi","",-23.621490,-46.701641
18911,"Berrini","",-23.604369,-46.696723
18912,"Vila Olímpia","",-23.593060,-46.692878
18913,"Cidade Jardim","",-23.584652,-46.691495
18914,"Amador Bueno","",-23.531050,-46.986272
18915,"Ambuitá","",-23.531207,-46.972355
18916,"Piqueri","",-23.504206,-46.714865
18917,"Lapa (linha 7)","",-23.517675,-46.703534
18918,"Lapa (linha 8)","",-23.519585,-46.700122
18919,"Água Branca","",-23.521787,-46.687667
18920,"Palmeiras - Barra Funda","",-23.525731,-46.665826
18921,"Perus","",-23.405446,-46.753211
18922,"Jaraguá","",-23.455648,-46.738225
18923,"Vila Clarice","",-23.469777,-46.743576
18924,"Caieiras","",-23.367517,-46.753291
18925,"Franco Da Rocha","",-23.329799,-46.726484
18926,"Baltazar Fidélis","",-23.309902,-46.723816
18927,"Tamanduateí","",-23.592985,-46.589293
18928,"São Caetano","",-23.610281,-46.570330
18929,"Utinga","",-23.626196,-46.543623
18930,"Prefeito Saladino","",-23.638725,-46.536882
18931,"Ribeirão Pires","",-23.713593,-46.414762
18932,"Rio Grande Da Serra","",-23.743461,-46.391665
18934,"Capuava","",-23.658321,-46.490097
18935,"Mauá","",-23.668268,-46.461376
18936,"Prefeito Celso Daniel - Santo André","",-23.652472,-46.528568
18937,"Guapituba","",-23.692298,-46.448635
18939,"Júlio Prestes","",-23.534083,-46.640194
18940,"Luz","",-23.535207,-46.634870
18941,"Moóca","",-23.556913,-46.609078
18942,"Ipiranga","",-23.582262,-46.596712
18944,"Tatuape","",-23.540352,-46.576650
18945,"Cimenrita","",-23.541373,-46.961699
18946,"Santa Rita","",-23.544730,-46.949141
18947,"Itapevi","",-23.545313,-46.935110
18948,"Engenheiro Cardoso","",-23.535168,-46.928603
18949,"Sagrado Coração","",-23.529386,-46.916035
18950,"Jandira","",-23.527882,-46.902796
18951,"Jardim Silveira","",-23.523572,-46.893487
18952,"Jardim Belval","",-23.514065,-46.889254
18953,"Barueri","",-23.512704,-46.875482
18954,"Antonio João","",-23.517604,-46.857390
18955,"Santa Terezinha","",-23.516848,-46.847948
18956,"Carapicuiba","",-23.518742,-46.835445
18957,"General Miguel Costa","",-23.523557,-46.817514
18958,"Quitaúna","",-23.522842,-46.807206
18959,"Comandante Sampaio","",-23.525973,-46.795682
18960,"Osasco","",-23.527838,-46.775965
18961,"Presidente Altino","",-23.531192,-46.761904
18962,"Ceasa","",-23.536990,-46.743607
18963,"Villa Lobos- Jaguaré","",-23.545938,-46.733837
18964,"Imperatriz Leopoldina","",-23.523902,-46.737860
18965,"Pirituba","",-23.488546,-46.726063
18966,"Pinheiros","",-23.565750,-46.703422
18967,"Cidade Universitária","",-23.558242,-46.711088
18968,"Hebraica - Rebouças","",-23.573606,-46.698914
18969,"Domingos De Moraes","",-23.518913,-46.720916
18971,"Francisco Morato","",-23.283322,-46.742329
18972,"Botujuru","",-23.236330,-46.767359
18973,"Campo Limpo Paulista","",-23.206348,-46.785887
18974,"Várzea Paulista","",-23.209224,-46.829227
18975,"Jundiai","",-23.195340,-46.872469
18976,"Itaquaquecetuba","",-23.485770,-46.348456
18978,"Jundiapeba","",-23.542846,-46.257967
18979,"Brás Cubas","",-23.536425,-46.225105
18980,"Mogi Das Cruzes","",-23.521617,-46.197387
18981,"Estudantes","",-23.516132,-46.185445
18984,"Ana Rosa","",-23.581376,-46.638388
18985,"Palmeiras - Barra Funda","",-23.525607,-46.666648
18986,"Palmeiras - Barra Funda","",-23.525714,-46.666782
18987,"Brás","",-23.545053,-46.616295
18989,"Paraíso","",-23.574971,-46.640554
19000,"Sé","",-23.550717,-46.633574
19040,"Largo Treze","",-23.654530,-46.710536
19041,"Santo Amaro","",-23.655750,-46.720436
19042,"Giovanni Gronchi","",-23.643901,-46.734486
19043,"Vila Das Belezas","",-23.640191,-46.745659
19044,"Campo Limpo","",-23.648970,-46.758831
19045,"Capão Redondo","",-23.659955,-46.768691
109733,"Av. Salim Farah Maluf, 3200","Ref.: Av. Alvaro Ramos",-23.557703,-46.577793
109740,"R. Lituânia, 330","Ref.: Rua Fernando Falcão",-23.563380,-46.589145
109751,"R. Corumbaíba, 718","Ref.: Praça Pinto Duarte",-23.571216,-46.576327
109754,"Av. Luca, 861","Ref.: Paroq. Sto. Antonio De Pádua- R. Nsa Sra. Dos Anjo",-23.569279,-46.557136
109759,"R. Pirassununga, 1313","",-23.567849,-46.580169
109760,"R. Lituânia, 597","Ref.: Rua Rui Martins",-23.564442,-46.586778
211121,"R. Pio Xi, 1480","Ref.: Rua São Domingos Savio",-23.536013,-46.714208
211142,"Av. Prof. Fonseca Rodrigues, 1260","Ref.: Av Pepereira De Andrade",-23.545245,-46.718122
211147,"Av. Arruda Botelho, 183","Ref.: R Bennet",-23.550083,-46.717170
211148,"Av. Arruda Botelho, 595","Ref.: Rua Silva Prado",-23.552961,-46.718806
211151,"Av. Prof. Fonseca Rodrigues, 519","Ref.: R Mirata",-23.551447,-46.711035
211191,"Av. S. Gualter, 1850","Ref.: R Alberto Faria",-23.551015,-46.709414
211193,"R. Da. Elisa Moraes Mendes, 1280","Ref.: Pc Panamericana",-23.552647,-46.708307
211195,"Pça. Panamericana, 0","Ref.: R Arqjaime Fonseca Rodrigues",-23.552858,-46.708663
211227,"Av. Pe. Pereira De Andrade, 100","Av. Pe. Pereira De Andrade, 100 Ref.: R Baicuri",-23.538088,-46.719629
211256,"R. Dr. Alberto Seabra, 402","",-23.547571,-46.708577
301670,"R. Leopoldo De Passos Lima, 915","R. Leopoldo De Passos Lima, 915 Ref.: R. Dionisio Bellante",-23.428230,-46.795632
301671,"Av. Da Solidariedade, 23","Ref.: R. Jose Adão / R. Fortaleza",-23.437180,-46.805737
301672,"Av. Da Solidariedade, 111","Ref.: R. Movimento Dos Canudos",-23.439230,-46.807039
301673,"R. Francisco Bellazi, 179","Ref.: Viela 3 / R. Giovani Paladino",-23.450234,-46.789740
301674,"Estr. Cel. José Gladiador","Ref.: R. Eduardo Grusius",-23.442419,-46.796187
301675,"Estr. Cel. José Gladiador, 1335","Ref.: Entre As Ruas Florêncio Carpi E D’angelo Rossi",-23.439153,-46.794709
301676,"R. Francisco Bellazi, 44","",-23.449524,-46.788464
301677,"R. Francisco Bellazi, 44","",-23.449429,-46.788475
301678,"Av. Felippo Sturba, 112","",-23.439060,-46.789962
301679,"Av. Felippo Sturba, 390","",-23.440333,-46.790333
301680,"Av. Felippo Sturba, 866","",-23.443893,-46.791584
301681,"Av. Felippo Sturba, 790","",-23.445365,-46.791993
301682,"Av. Felippo Sturba, 1000","",-23.449411,-46.793787
301683,"Av. Felippo Sturba, 1317","",-23.449543,-46.793771
301684,"Av. Felippo Sturba","",-23.447396,-46.792568
301685,"R. Denis Brean (p. Morro Doce-anh), 565","Ref.: Rua Francisco Bellazi",-23.452429,-46.793337
301686,"R. Francisco Bellazi, 289","",-23.450869,-46.790710
301687,"R. Francisco Bellazi, 521","",-23.452273,-46.792456
301689,"R. Mário Palmerio, 176","",-23.438803,-46.791037
301690,"R. Denis Brean (p. Morro Doce-anh)","",-23.452168,-46.793297
301691,"R. Mário Palmerio, 193","",-23.438792,-46.791306
301693,"Estr. De Pirapora, 850","Ref.: Fabrica De Blocos No 830",-23.431340,-46.800551
301695,"R. Dos Vitoriosos","Ref.: Próximo Ao Dep. De Materiais Para Construção",-23.436901,-46.802605
301696,"R. Dos Vitoriosos, 18","",-23.437090,-46.802527
301697,"R. Dalva De Oliveira, 70","Ref.: Rua Do Espanhol",-23.438349,-46.802298
301698,"R. Preste, 12","",-23.436158,-46.804023
301699,"R. Tancredo Neves, 46","Ref.: Rua Dalva De Oliveira",-23.437337,-46.803267
301700,"R. Elis Regina, 170","Ref.: Rua Tancredo Neves",-23.437630,-46.804526
301702,"R. Recife, 51","R. Recife, 51 Ref.: Rua Minas Gerais / Rua Bahia",-23.435774,-46.809899
301703,"R. Enéas De Camargo","",-23.418553,-46.805319
301708,"R. Pedra De Bendengo, 1","R. Pedra De Bendengo, 1 Ref.: Rua Lagoa Do Morro",-23.444340,-46.799463
301709,"Rod. Anhanguera (pista Local)","Rod. Anhanguera (pista Local) Ref.: Rua Nsa. Sra. Do Libano",-23.442308,-46.786154
301710,"R. Nsa. Sra. Do Líbano","R. Nsa. Sra. Do Líbano Ref.: Rua Luisa Maria Rosa",-23.446134,-46.784041
301711,"R. Albert Jansen","",-23.445769,-46.789109
301713,"R. Alexandre Caturla, 161","",-23.443734,-46.786253
404598,"Av. Dos Nacionalistas, 347","Ref.: R Manoel Luiz De Vergueiro",-23.576581,-46.517253
404599,"Av. Dos Nacionalistas, 386","Ref.: Av Inconfidencia Mineira",-23.576694,-46.516906
404602,"Av. Dos Nacionalistas, 459","Ref.: Av Inconfidencia Mineira",-23.577077,-46.515587
404643,"Av. Dos Nacionalistas, 640","Ref.: R Ricardo Gumbleton Daunt",-23.577623,-46.514648
404729,"Av. Por. Cicero Canuto De Lima, 249","Ref.: R Aparecida De São Manoel",-23.579914,-46.510065
404732,"Av. Por. Cicero Canuto De Lima, 285","Ref.: Pc Eulalio De Carvalho",-23.580073,-46.509640
404733,"Av. Por. Cicero Canuto De Lima, 10","Ref.: Rluciara",-23.579388,-46.512330
404734,"Av. Dos Nacionalistas, 920","Ref.: R Bonifacio Gomes Siqueira",-23.579319,-46.512611
408997,"Av. Por. Cicero Canuto De Lima, 495","Ref.: Op R Pedro Rabelo",-23.579937,-46.507252
409048,"Av. Aricanduva, 5200","Ref.: Parada Exclusiva(linhas Destino Cid. Tiradentes)",-23.565299,-46.507937
409050,"Av. Inconfidência Mineira, 1997","",-23.570684,-46.509236
409051,"Av. Francisco José Rezende, 138","",-23.567969,-46.507183
409052,"Av. Odilon Pires, 235","",-23.565666,-46.509179
409054,"R. João Galli, 45","",-23.583640,-46.525041
409058,"R. Nello Selmi Dei, 44","Ref.: Praça Eulálio De Carvalho",-23.580380,-46.509770
508991,"Av. Eng. João Baptista Aranha, 135","",-23.550520,-46.493143
508993,"Et. Artur Alvim - Plat. B, 0","",-23.540030,-46.483157
509013,"R. Pe. Gabriel De Campos, 49","Ref.: Av. Waldemar Tiez",-23.549839,-46.487241
509014,"R. Pe. Gabriel De Campos, 71","Ref.: Oposto - Av. Waldemar Tiez",-23.549654,-46.487042
509015,"R. Juazeiro Do Norte, 313","",-23.529268,-46.487692
509017,"R. Iborepi, 121","Ref.: Pça. Aramã",-23.532782,-46.484453
509020,"R. Juazeiro Do Norte, 298","Ref.: R. Rio Tapacura",-23.529547,-46.487538
509021,"R. Juazeiro Do Norte, 610","Ref.: R. Antônio Bacaeri",-23.526775,-46.487821
509022,"Av. Águia De Haia, 1815","Ref.: Próximo A Rua Pitágoras",-23.530005,-46.474051
509026,"Terminal Metrô Artur Alvim","",-23.540692,-46.482933
509027,"R. S. Vitório, 569","Ref.: Ruas Emb. Osvaldo Tavares E Rua Alto Do Araguaia",-23.548178,-46.496007
509028,"R. Juciri, 130","Ref.: Próximo A Ubs E Rua Japani",-23.541320,-46.476053
509030,"R. S. Vitório","Ref.: Praça Dos Aposentados",-23.549165,-46.495993
509031,"R. S. Vitório, 562","Ref.: Rua Alto Do Araguala",-23.548091,-46.496016
509033,"R. Dr. Xavier De Oliveira","Ref.: Próximo A Rua Erasmo Mader",-23.549443,-46.495920
509034,"R. Des. Rocha Portela, 1065","Ref.: Próximo A Rua Benedito Leal",-23.539675,-46.488622
509035,"Av. Águia De Haia, 1255","",-23.534977,-46.473961
509036,"R. Des. Rocha Portela, 62","Ref.: Próximo A Avenida Antonio Estevão De Carvalho",-23.537400,-46.497012
509037,"R. Des. Rocha Portela, 386","",-23.538378,-46.493889
509038,"R. Henrique Jacobs, 374","",-23.538931,-46.491888
509039,"R. Henrique Jacobs","",-23.542449,-46.493517
509040,"Av. Águia De Haia, 1772","Ref.: Rua Guaraxaim",-23.530438,-46.473910
509043,"Av. Calim Eid, 3200","Ref.: R Júlio Sayago/ R Carlos Maria Steimberg",-23.530956,-46.488221
509044,"Av. Calim Eid, 3672","Ref.: R João Peres/ R José Giordano",-23.534981,-46.486080
509045,"Av. José Pinheiro Borges, 3","Ref.: Rua Boipeva Nº 31",-23.541553,-46.481217
509046,"R. Igaroi, 42","",-23.531290,-46.487071
610774,"R. Margarida, 415","Ref.: R Marta",-23.529206,-46.662129
610820,"Av. Antártica, 213","Ref.: Av Mq. De Sao Vicente",-23.522697,-46.668711
610833,"Antartica","Av. Antártica, 575 Ref.: R Tanabi",-23.529182,-46.676272
610869,"Av. Nicolas Bôer, 550","Ref.: Ac A Av Marques De Sao Vicente",-23.516331,-46.679236
614455,"Pedro Corazza - Plataforma 3","Av. Mq. De São Vicente, 2957 Ref.: Pça Pedro Corazza",-23.515105,-46.689769
614515,"Terminal Barra Funda Lado Sul Plat. B","",-23.526000,-46.666900
614518,"Terminal Barra Funda Lado Sul Plat. C","",-23.526070,-46.668099
614530,"R. Min. Godoy","",-23.532654,-46.668966
614531,"Terminal Barra Funda Lado Sul Plat. B","",-23.526200,-46.665800
614533,"R. Robert Bosch, 450","Ref.: Sentido B/C",-23.522117,-46.671566
614534,"R. Robert Bosch, 469","Ref.: Sentido Centro / Bairro",-23.521946,-46.671596
614537,"R. Prof. Wilfrides Alves De Lima","Ref.: Metrô Barra Funda",-23.527350,-46.666781
614540,"Av. Auro Soares De Moura Andrade, 967","",-23.526739,-46.668186
614541,"Av. Antártica, 213","Ref.: R. Robert Bosh/marq. S. Vicente",-23.528623,-46.675876
614542,"Terminal Barra Funda Lado Norte Plat. A","Ref.: Rua Gustav Willi Borghoff",-23.525149,-46.666532
614543,"Terminal Barra Funda Lado Norte Plat. A","Ref.: Rua Gustav Willi Borghoff",-23.525157,-46.666352
614544,"Parada Exclusiva","Term. Barra Funda Lado Norte Plat. A",-23.525172,-46.666195
614545,"Terminal Barra Funda Lado Norte Plat. A","",-23.525192,-46.665867
614546,"Terminal Barra Funda Lado Norte Plat. A","Ref.: Rua Gustav Willi Borghoff",-23.525176,-46.666035
614547,"Av. Antártica, 608","Ref.: Rua Barão De Tefe / Rua Pe. Antonio Tomás",-23.528794,-46.676211
614548,"Comendador Martinelli - C/B","Av. Com. Martinelli, 342",-23.512100,-46.690283
614549,"Comendador Martinelli - B/C","Av. Com. Martinelli, 277",-23.512771,-46.690559
614550,"Pedro Corazza - Plataforma 5","Av. Com. Martinelli Ref.: R. Ado Benatti",-23.514255,-46.690644
614552,"Av. Nicolas Bôer, 550","",-23.516331,-46.678926
706304,"Av. Paulista, 900","Ref.: Al Campinas",-23.565893,-46.650874
706308,"Parada Avenida Paulista","Av. Brig. Luís Antônio, 2060 Ref.: Parada Av. Paulista C_b",-23.566236,-46.648164
706309,"Parada Cincinato Braga","Av. Brig. Luís Antônio, 2034 Ref.: Parada Cincinato Braga B_c",-23.565952,-46.647879
706310,"Parada Treze De Maio","Av. Brig. Luís Antônio, 1804 Ref.: Parada Treze De Maio C_b",-23.563953,-46.646407
706311,"Parada Treze De Maio","Av. Brig. Luís Antônio, 1747 Ref.: Parada Treze De Maio B_c",-23.563743,-46.646113
706319,"Parada Treze De Maio","R. Treze De Maio, 1874 Ref.: R Cincinato Braga",-23.569795,-46.643980
706320,"R. Treze De Maio, 1855","Ref.: Pc Amadeu Amaral",-23.569833,-46.643750
706325,"Vai Vai B/C","Viad. Dr. Plínio De Queiroz, 901 Ref.: 14 Bis",-23.555989,-46.650066
706334,"Vai Vai C/B","Viad. Dr. Plínio De Queiroz, 700 Ref.: 14 Bis",-23.555591,-46.649781
706361,"R. Rui Barbosa, 333","Ref.: R. Treze De Maio",-23.558383,-46.645243
809674,"R. Pe. Adelino, 987","Ref.: Lado Oposto Sesc Belenzinho",-23.543946,-46.582918
809675,"Av. Álvaro Ramos, 779","Ref.: 778 Av Alcantara Machado",-23.544198,-46.586189
809826,"Parada Leonor Mendes De Barros","Av. Celso Garcia, 2485 Ref.: Parada 1/2/3 - Leonor Mendes De Barros",-23.536460,-46.588164
810534,"Av. Ariston De Azevedo, 75","",-23.528192,-46.601901
810536,"Pça. Gen. Humberto Souza Mello, 56","",-23.530810,-46.602307
810550,"R. Herval, 715","Ref.: R Dr Clementino",-23.540614,-46.588448
810569,"R. Manoel Ramos Paiva, 441","R. Manoel Ramos Paiva, 441 Ref.: Av. Ariston De Azevedo",-23.528758,-46.600048
810575,"R. Serra Da Bocaina, 368","",-23.546385,-46.587665
810576,"Av. Ultramarino, 490","Ref.: Av. Direitos Humanos",-23.472907,-46.639926
810578,"R. Serra De Jairé, 443","Ref.: Próximo A Rua João De Castro Costa",-23.547178,-46.586975
810580,"Terminal Metrô Belém (lado Norte)","Ref.: Terminal Metrô Belém - Lado Norte",-23.542456,-46.590362
810582,"R. Sta. Rita","",-23.529353,-46.607062
810583,"R. S. Leopoldo, 340","",-23.540884,-46.599837
810586,"R. Paulo Andrighetti, 55","",-23.529051,-46.603474
810588,"Pça. Gen. Humberto Souza Mello, 865","",-23.530201,-46.603050
810590,"Terminal Metrô Belém (sul) Pl. D","",-23.543288,-46.589184
810591,"R. Júlio Cesar Da Silva, 72","",-23.538205,-46.605545
810592,"Pça. Mj. Guilherme Rudge","",-23.537436,-46.588934
810593,"R. Itaqueri, 1082","Ref.: Rua Cassandoca",-23.556341,-46.588353
910689,"R. Barra Do Tibagi, 1090","Ref.: Vd Engorlando Murgel",-23.525779,-46.647676
910711,"R. Da Graça, 343","Ref.: R Silva Pinto",-23.528205,-46.639267
910768,"R. Prates, 898","Ref.: Rua Joao Kopke",-23.526223,-46.634751
910776,"Av. Do Estado, 5854","Ref.: Rua Dona Ana Néri",-23.559131,-46.614937
910778,"Luz","",-23.535512,-46.634151
910792,"R. Guarani, 368","Ref.: R. Antonio Coruja",-23.527804,-46.637215
910793,"R. Anhaia, 1321","Ref.: Escola Senai Adriano J. Marchini",-23.519127,-46.647918
910794,"R. Vítor Airosa, 131","Ref.: Rua Tapajós",-23.527741,-46.626775
910795,"R. Guaporé, 385","Ref.: Santuário Das Almas",-23.523590,-46.626553
1009884,"Parada 2 Concórdia","Av. Rangel Pestana, 2079",-23.542161,-46.615485
1009889,"R. Visc. De Abaete, 79","",-23.540609,-46.614582
1009894,"R. José De Alencar, 56","",-23.540361,-46.611622
1009968,"Parada 3 - Piratininga","Av. Rangel Pestana, 1526 Ref.: R Piratininga/ R Martim Burchard",-23.544705,-46.619338
1010053,"Brás","",-23.544917,-46.616052
1010054,"Bras","",-23.547686,-46.615285
1010076,"Av. Alcântara Machado, 773","Ref.: Lateral Do Vd. Alcântara Machado",-23.552358,-46.617495
1010078,"R. Bresser, 1352","",-23.541959,-46.607293
1010082,"R. Da Figueira, 233","",-23.546570,-46.626512
1010083,"R. Mons. Andrade, 1121","",-23.535485,-46.622232
1113919,"R. Feliciano Malábia, 46","Ref.: Av. Hugo Ítalo Merigo / R Gregorio Pomar",-23.451163,-46.697270
1113942,"Av. Dep. Cantidio Sampaio, 5984","Ref.: R Joao Correia Castro",-23.441836,-46.707466
1114034,"Av. Manoel Bolivar, 313","",-23.457640,-46.699750
1114044,"R. Alfredo Lucio, 170","",-23.458666,-46.695099
1114051,"R. Do Outono, 706","",-23.461321,-46.692880
1114053,"R. Joaquim Ferreira Da Rocha, 1175","Ref.: R. Pirajibe / V.p. Macajá",-23.464975,-46.694184
1114071,"R. Joaquim Ferreira Da Rocha, 738","Ref.: R. Tomás Lopes",-23.467775,-46.690949
1114085,"R. Domingos Vega, 718","Ref.: Oposto Ao Numeral 715",-23.463135,-46.701278
1114089,"R. Rodolfo Pereira Lima, 156","Ref.: R Domingos F De Medeiros",-23.458172,-46.697472
1114208,"R. Rodolfo Pereira Lima, 497","R. Rodolfo Pereira Lima, 497 Ref.: R. Paulo Limoeiro",-23.457526,-46.696314
1114237,"Av. Dep. Cantidio Sampaio, 4391","",-23.451553,-46.700081
1114239,"R. Aurélio Brasil Ribeiro, 565","Ref.: R. Rosalvo Jose Da Silva",-23.459174,-46.701904
1114241,"Av. Dep. Cantidio Sampaio, 4306","Ref.: Rua Avoante",-23.452432,-46.699888
1114244,"R. Manoel Nascimento Pinto, 65","",-23.462127,-46.688563
1114245,"Av. Dep. Cantidio Sampaio, 4280","Ref.: Jd. Damasceno",-23.452557,-46.699631
1114246,"R. Parapuã, 1089","",-23.475295,-46.690441
1114247,"Av. Dep. Cantidio Sampaio, 1111","",-23.467738,-46.677927
1114248,"R. Jorge Pires Ramalho","",-23.461310,-46.698786
1114249,"R. João Pinto De Oliveira, 156","",-23.461631,-46.690894
1114252,"R. Carlos Marighella, 115 Ref.: Av. Dep. Cantidio Sampaio","",-23.462613,-46.681533
1114253,"R. Henry Charles Potel, 708","Ref.: R. Dr. Mario De Sanctis / R. Anibal Teofilo",-23.471484,-46.677690
1114254,"R. Rosalvo José Da Silva, 134","Ref.: Rua Honorato Das Neves",-23.456957,-46.702888
1114255,"R. Braço Do Norte, 128","",-23.460761,-46.709564
1114256,"R. Flores De Goiás, 145","",-23.458283,-46.707895
1114257,"R. Lagoa Da Serra, 90","",-23.458966,-46.709415
1114258,"R. Sítio D'abadia, 160","",-23.459512,-46.709792
1114259,"R. Sítio D'abadia, 78","Ref.: R. Aparecida Do Taboado",-23.460389,-46.708628
1114260,"R. Aparecida Do Tabuado, 297","",-23.461272,-46.711172
1114261,"R. Alto Tocantins, 133","",-23.460789,-46.710816
1114262,"R. Pe. Achilles Silvestre, 14","",-23.460799,-46.712544
1114263,"Av. Guilherme De Almeida, 258","Ref.: Emei Theo Dutra",-23.467164,-46.681042
1114264,"R. Arroio Do Meio","Ref.: Rua Arroio Do Meio",-23.453197,-46.684353
1114265,"R. Henry Charles Potel, 851","Ref.: Av. Dep. Cantidio Sampaio",-23.470222,-46.677169
1114266,"Av. Dep. Cantidio Sampaio, 789","",-23.470555,-46.676331
1114267,"R. Ilha De Itaparica","",-23.453181,-46.707130
1114268,"R. José Eduardo Pereira II","Ref.: Av. Dep. Cantídio Sampaio X R. Elísio Reinaldo Moraes Vieira",-23.446949,-46.701796
1114269,"R. Talha Mar, 11","Ref.: Av. Dep.cantidio Sampaio / R. Grumixa",-23.452518,-46.699060
1114270,"R. Cirilo Correia, 36","Ref.: R. Daniel Cerri / R. Elias Galvão",-23.446646,-46.699562
1114271,"R. Fortunato Devoto, 41","",-23.449518,-46.696059
1114272,"R. Adolfo Lazzari","",-23.454454,-46.693143
1114273,"R. Itaipava, 1","",-23.464764,-46.694710
1114274,"R. Benedito Egídio Barbosa, 45","",-23.459993,-46.697979
1114275,"R. Pajuçara, 161","Ref.: R. Paulo Garcia Aquiline",-23.468042,-46.683088
1114276,"R. Paramirim, 1116","Ref.: R. João Honório",-23.466242,-46.689267
1114277,"R. Rodolfo Pereira Lima, 215","",-23.457949,-46.697529
1114278,"R. Paulo Limoeiro, 8","",-23.457436,-46.696319
1114279,"R. Luís José Junqueira Freire","R. Luís José Junqueira Freire Ref.: Av. Padre Orlando Garcia Da Silveira",-23.472557,-46.683191
1114280,"R. Henriqueta Pantaleão","R. Henriqueta Pantaleão Ref.: Rua Adolfo Lazzari",-23.452892,-46.694738
1206709,"Parada Armando Fairbanks","Av. Dr. Vital Brasil, 108 Ref.: R. Des. Armando Fairbanks S/b",-23.572108,-46.705583
1206714,"Parada Waldemar Ortiz","R. Reação, 105 Ref.: Pc. Waldemar Ortiz S/b",-23.572538,-46.709648
1206717,"Parada Caxingui","Av. Dr. Vital Brasil, 909 Ref.: R. Sta. Rosa Junior S/c",-23.569920,-46.713088
1206720,"Parada Afonso Vaz","Av. Corifeu De Azevedo Marques, 149 Ref.: R Drubirajara Dib Zogaib",-23.569689,-46.715977
1206721,"Av. Corifeu De Azevedo Marques, 291","Ref.: R Majrubens Florentino Vaz",-23.570449,-46.717878
1206916,"Av. Eliseu De Almeida, 1630","Ref.: R Staalbina",-23.584305,-46.727929
1207025,"Av. Corifeu De Azevedo Marques, 1495","Ref.: Av. Benjamin Mansur",-23.574643,-46.727739
1207027,"Parada Padre Justino","Av. Corifeu De Azevedo Marques, 290 Ref.: R Pdejustino",-23.571272,-46.719854
1207028,"Parada Santanesia","Av. Corifeu De Azevedo Marques, 843 Ref.: R Santanesia",-23.572391,-46.722415
1211339,"Butanta","",-23.571563,-46.708667
1211340,"Terminal Metrô Butantã, 0","Ref.: Rua Mmdc - Term. Metrô Butantã",-23.571985,-46.708640
1211342,"R. Ari Dos Santos, 37","",-23.584394,-46.739727
1211348,"Av. Eliseu De Almeida, 141","",-23.576160,-46.712983
1211351,"Parada 2 - Pirajussara","Av. Dr. Vital Brasil, 334 Ref.: Metrô Butantã",-23.571501,-46.707430
1211355,"Terminal Metrô Butantã","",-23.572060,-46.708400
1211359,"Terminal Metrô Butantã","",-23.571812,-46.708563
1211364,"Av. Dr. Vital Brasil, 559","",-23.570983,-46.709660
1211365,"R. Mmdc, 380","",-23.572057,-46.709319
1211366,"Av. Valdemar Ferreira, 315","Ref.: Rua Pirajussara",-23.570283,-46.706100
1211369,"R. Cabral De Menezes, 20","Ref.: Após A Rua Pereira Do Lago",-23.576442,-46.733369
1211371,"Av. Corifeu De Azevedo Marques, 547","",-23.571306,-46.720115
1211372,"R. Ari Aps, 368","Ref.: Rua Roberto Valentino De Camargo / Rua Sebastião Martins",-23.584862,-46.742755
1211373,"Terminal Metrô Butantã","",-23.571895,-46.708235
1211375,"Terminal Metrô Butantã","",-23.571895,-46.708944
1211376,"Terminal USP (cidade Universitária)","",-23.552258,-46.732017
1312834,"Av. Imirim, 3059","Ref.: Av Lasar Segall",-23.481385,-46.655872
1313272,"Av. Dep. Emílio Carlos","Ref.: R Maresias",-23.475621,-46.669438
1313286,"Ac. Acesso, 399","Ac. Acesso, 399 Ref.: Cemitério Vila Nova Cachoeirinha",-23.476636,-46.667505
1313294,"R. Água Preta, 488","Ref.: R Franklin Do Amaral",-23.473334,-46.657145
1313298,"Av. Parada Pinto, 901","Ref.: R Oliveira Martins",-23.469195,-46.661843
1313301,"R. Água Preta, 188","Ref.: R Potiragua",-23.473397,-46.657065
1313492,"R. Solar, 163","Ref.: Rua Realce",-23.454513,-46.658012
1313498,"R. Dario Vilares Barbosa, 629","",-23.455739,-46.673872
1313501,"R. Koshun Takara, 338","",-23.462206,-46.660413
1313502,"Av. Parada Pinto, 1161","",-23.469648,-46.659173
1313503,"R. Koshun Takara","Ref.: R. Jorn. Octavio Ribeiro Pena Branca",-23.463881,-46.658461
1313504,"R. Koshun Takara","Ref.: Rua Afonso Lopes Vieira",-23.465103,-46.655861
1313506,"R. Koshun Takara, 8987","",-23.463276,-46.658432
1313509,"R. Gomes Leal, 560","",-23.465904,-46.662468
1313510,"Av. Imirim, 3273","",-23.480145,-46.657048
1313512,"Av. Francisco Machado Da Silva, 1713","Av. Francisco Machado Da Silva, 1713 Ref.: Av. Santa Ines",-23.454566,-46.652234
1313513,"R. Dario Vilares Barbosa, 24","",-23.457076,-46.669747
1313514,"R. Cdssa. Amalia Matarazzo","R. Cdssa. Amalia Matarazzo Ref.: Praça Geraldo Peixoto De Souza",-23.460480,-46.653287
1313515,"Av. Francisco Machado Da Silva","Av. Francisco Machado Da Silva Ref.: Rua Dom Aquino",-23.454436,-46.659095
1313516,"Av. Inajar De Souza","",-23.472200,-46.670145
1313517,"Av. Inajar De Souza","Av. Inajar De Souza Ref.: Rua Rocio Do Carmo",-23.472200,-46.670442
1313518,"R. Forte De São Caetano","",-23.457217,-46.656202
1313519,"R. Palmas De São Moisés","",-23.457008,-46.655993
1405659,"R. Heitor Peixoto, 480","Ref.: R Ingles De Souza",-23.575312,-46.622955
1405660,"Av. Lins De Vasconcelos, 1510","Ref.: R Heitor Peixoto",-23.576691,-46.623500
1410037,"Av. Do Estado, 5533","",-23.558127,-46.615801
1410038,"Av. Pres. Wilson","",-23.581808,-46.598016
1410074,"Estação Metrô D. Pedro B/C","Expr. Tiradentes, 5000 Ref.: 5000 - Estacao Metro D. Pedro Bc",-23.550720,-46.626853
1410075,"Estacao Ana Neri B/C","Expr. Tiradentes, 5800 Ref.: 5800 - Estacao Ana Neri Bc",-23.558987,-46.614564
1410076,"Estacao Alberto Lion B/C","Expr. Tiradentes, 6000 Ref.: 6000 - Estacao Alberto Lion Bc",-23.564183,-46.611236
1410078,"Estacao Ana Neri C/B","Expr. Tiradentes, 5800 Ref.: 5800 - Estacao Ana Neri Cb",-23.559034,-46.614661
1410079,"Estacao Alberto Lion C/B","Expr. Tiradentes, 6000 Ref.: 6000 - Estacao Alberto Lion Cb",-23.564195,-46.611271
1410080,"Estação Metrô D. Pedro C/B","Expr. Tiradentes, 5000 Ref.: 5000 - Estacao Metro D. Pedro Cb",-23.550730,-46.626911
1410083,"Av. Do Estado, 5701","Ref.: R. Dona Ana Nery",-23.560002,-46.613203
1410084,"Av. D. Pedro I - Pista Central, 100","",-23.565572,-46.611746
1410086,"Av. Lacerda Franco, 282","Ref.: Rua Álvares Ribeiro",-23.565061,-46.622765
1502843,"Av. Prof. Vicente Ráo, 88","Ref.: Av Br. Do Triunfo - Sentido B/C",-23.626466,-46.686824
1502872,"R. Joaquim Nabuco, 2003","Ref.: Rua Washington Luiz",-23.635114,-46.669839
1506127,"R. Dr. Jesuíno Maciel, 2031","Ref.: R. Rafael Iorio",-23.626271,-46.664000
1506133,"Av. Bandeirantes, 3637","",-23.616093,-46.664394
1506150,"R. Otávio Tarquínio De Souza, 702","",-23.618170,-46.667904
1506160,"Joaquim Nabuco C/B","Av. Ver. José Diniz, 2381 Ref.: Rua Joaquim Nabuco",-23.625555,-46.682916
1506163,"Joaquim Nabuco B/C","Av. Ver. José Diniz, 2306 Ref.: Rua Joaquim Nabuco",-23.625598,-46.682839
1506168,"Av. Washington Luiz, 6808","",-23.626182,-46.661392
1506179,"Av. Washington Luiz, 5320","Ref.: Rua Viaza",-23.632124,-46.668812
1506185,"Av. Washington Luiz, 113","Ref.: Ts Da Linha 5128-10",-23.625198,-46.661924
1506186,"R. Tamoios, 650","Ref.: Rua Carlos Pinto Alves",-23.631910,-46.661895
1506190,"Av. Jorn. Roberto Marinho, 3228","",-23.629756,-46.673767
1506191,"R. Cde. De Porto Alegre, 1402","",-23.619895,-46.671387
1506192,"R. Félix De Sousa, 69","Ref.: Oposto Ao Aeroporto De Congonhas",-23.623001,-46.661902
1506193,"R. Carlos Pinto Alves, 341","Ref.: Proximo Av. Jorn. Roberto Marinho",-23.636438,-46.663958
1506194,"R. Sapoti, 20","Ref.: Proximo Av. Washington Luiz",-23.625917,-46.663665
1506198,"Pça. Cte. Lineu Gomes","",-23.626903,-46.659300
1602494,"Av. Yervant Kissajikian, 868","Ref.: R Luis Gama Rosa",-23.669619,-46.670901
1602565,"R. Eng. Domicio De L. Pacheco E Silva, 209","Ref.: R Moacir Bonatti",-23.681776,-46.680788
1602573,"Av. Nsa. Sra. Do Sabará, 2946","Ref.: R Alessandro Manzoni",-23.680416,-46.683986
1602574,"Av. Nsa. Sra. Do Sabará, 2909","Ref.: Av Interlagos",-23.679700,-46.684264
1602608,"Av. Interlagos, 1260","Ref.: Av Srg.geraldo Santana",-23.664598,-46.678494
1603199,"R. Zike Tuma, 415","Ref.: R Arlindo Alberto",-23.690746,-46.673544
1603263,"Av. Miguel Yunes, 540","Ref.: Rua Tabaré",-23.689401,-46.687329
1603264,"Av. Miguel Yunes, 500","Ref.: Av. Interlagos",-23.685167,-46.691146
1603271,"Av. Eng. Euzébio Stevaux, 2105","",-23.676163,-46.695933
1603275,"Av. Eng. Euzébio Stevaux, 1900","",-23.675985,-46.696102
1603294,"R. Danaides, 130","Ref.: Oposto - Rua Engo. Alberto De Zagottis",-23.662541,-46.692700
1603296,"R. Sg. Geraldo Santana, 1000","Ref.: R. Eng. Alyrio Hugueney De Mattos",-23.663405,-46.682069
1603300,"R. David Eid, 1057","Ref.: Av. Interlagos",-23.678450,-46.670688
1603302,"R. Eng. Domicio De L. Pacheco E Silva, 501","Ref.: Rua Estanislau",-23.683451,-46.678468
1603304,"R. Marfim, 482","",-23.682876,-46.677347
1603305,"Pça. Camafeu","Ref.: Estação Jurubatuba",-23.677866,-46.701592
1603306,"R. Eng. Alyrio Hugueney De Mattos, 195","Ref.: Rua Sgto. Geraldo Santana",-23.662656,-46.680848
1603307,"Av. Nsa. Sra. Do Sabará, 4090","Ref.: Rua Tabaré / Rua Cárida",-23.689091,-46.679878
1603308,"R. Sg. Geraldo Santana, 683","",-23.663444,-46.685049
1603309,"R. Sg. Geraldo Santana, 766","",-23.663378,-46.684301
1603311,"R. Prof. Guilherme Belfort Sabino, 108","",-23.668559,-46.680832
1603314,"R. Sant´ana, 132","",-23.669691,-46.681782
1603315,"R. Sant´ana, 275","",-23.672069,-46.686345
1603316,"R. Sant´ana, 524","",-23.671806,-46.684387
1603317,"R. Sant´ana, 725","",-23.672044,-46.686142
1603318,"R. Sto. André, 45","",-23.671101,-46.687844
1603320,"R. Prof. Guilherme Belfort Sabino, 1347","",-23.674920,-46.683566
1603321,"Pça. Camafeu, 0","",-23.677533,-46.701487
1603322,"Pça. Camafeu","Ref.: Ao Lado Do Bicicletário Cptm",-23.677827,-46.701616
1703326,"R. José Pereira Bueno, 246","Ref.: R Jose Pereira Bueno",-23.636274,-46.747891
1703589,"Av. Carlos Lacerda, 2184","Ref.: R. Mario Graça",-23.650881,-46.778947
1703655,"Estr. Pirajussara-valo Velho, 658","Ref.: R Justimano Carrouza",-23.643811,-46.783683
1703656,"Av. Augusto Barbosa Tavares, 217","Ref.: Rua Antonio Viegas De Ataíde",-23.640938,-46.782770
1707192,"Av. Augusto Barbosa Tavares, 838","Ref.: Dr. Jorge Arida",-23.643822,-46.788047
1707212,"Estr. Dos Mirandas, 908","Ref.: 746f/10 - 8078/10 - Rua Capanezinho",-23.619648,-46.749348
1707313,"R. José Ramos Fernandes, 449","Ref.: Rua Arnaldo Carvalho Martins - Adega Jaqueline",-23.648865,-46.773602
1707314,"R. Lourenço Saporito, 245","",-23.625966,-46.762764
1707315,"R. Lira Cearense, 348","Ref.: Condomínio Morumbi Sul II",-23.643313,-46.756509
1707316,"R. Cataquena","",-23.632867,-46.747177
1707317,"R. Roque De Mingo, 80","",-23.629090,-46.768055
1707318,"R. Dr. Hugo Lacorte Vitale, 375","Ref.: Rua Campeche",-23.627971,-46.757602
1707319,"R. Dr. Hugo Lacorte Vitale","Ref.: Rua Canori",-23.627962,-46.757611
1707320,"R. Dr. Hugo Lacorte Vitale","Ref.: Rua Andrea De Firenze",-23.628109,-46.757656
1707321,"R. Dr. Hugo Lacorte Vitale","Ref.: Rua Gaspar De Menezes",-23.625707,-46.757537
1707326,"Estr. Do Campo Limpo, 5553","",-23.619942,-46.757956
1707329,"R. Diogo Rodrigues, 1","Ref.: Esquina Da Estrada Do Campo Limpo",-23.642160,-46.766025
1707330,"R. Prudêncio Do Amaral, 78","Ref.: R. Jorge Alonso",-23.649379,-46.784846
1707332,"R. Profa. Nina Stocco, 500","Ref.: Muro Do Condomínio Floresta",-23.628971,-46.760219
1707333,"R. Profa. Nina Stocco, 543","Ref.: Oposto Ao Muro Do Condomínio Floresta",-23.628828,-46.760208
1707335,"Av. Augusto Barbosa Tavares, 821","",-23.643780,-46.787919
1707339,"R. Maniçoba, 560","Ref.: Av Anacé",-23.623811,-46.752429
1707340,"Av. Anacé (pça. Marília)","",-23.622415,-46.754592
1707342,"Estr. Do Campo Limpo, 3677","Ref.: Rua Dr. Avelino Lemos Junior",-23.630384,-46.770490
1707344,"R. Cataquena","",-23.632881,-46.747620
1707345,"R. Cataquena","",-23.632903,-46.747881
1707346,"R. Rogério De Paula Brito","",-23.649999,-46.758873
1707347,"R. Edith Junqueira De Azevedo Marques, 23","Ref.: Oposto Ao Condominio Portal Da Primavera",-23.648913,-46.763548
1707348,"R. Prof. Orlando Alvarenga Gaudio, 80","Ref.: Condominio Vilagio Di Fiori",-23.648988,-46.768829
1707349,"R. Francisco Da Cruz Mellão, 500","",-23.651996,-46.769988
1707350,"R. Francisco Da Cruz Mellão, 146","Ref.: Rua Isidoro Giuzio",-23.653462,-46.769162
1707351,"R. Enga. Amalia Perola Cassab, 415","Ref.: Condominio Sant Acasio",-23.654723,-46.767819
1707352,"R. Enga. Amalia Perola Cassab, 50","Ref.: Rua Antonio Ambuba/cond. Solar Horto Do Ype/ Cond. Vilas Terras Del Rei",-23.652473,-46.765293
1707353,"R. Enga. Amalia Perola Cassab, 20","Ref.: Rua Sócrates Abraão/cond. San Antonio Parque",-23.650876,-46.765817
1707354,"R. Edith Junqueira De Azevedo Marques, 195","Ref.: Edificio Jacaranda/ Igreja Batista Do Ype",-23.649909,-46.763539
1707355,"R. Edith Junqueira De Azevedo Marques, 82","Ref.: Cond. Portal Da Primavera/rua Francisco Cruz Mellão",-23.648652,-46.763369
1707356,"Terminal Campo Limpo","",-23.630478,-46.773613
1707357,"Terminal Campo Limpo","",-23.631152,-46.772489
1707358,"Terminal Campo Limpo","",-23.631557,-46.772434
1707359,"Terminal Campo Limpo","",-23.631689,-46.772182
1707363,"R. José Pereira Bueno, 343","Ref.: Rua Mário Linhares",-23.634818,-46.747884
1809522,"Av. Cangaiba, 1304","Ref.: R Brasopolis",-23.510811,-46.541579
1809546,"Av. Dr. Assis Ribeiro, 1418","Ref.: R Ppf.geraldo Passarelli",-23.504798,-46.538604
1809548,"Av. Dr. Assis Ribeiro, 1680","Ref.: R Mariquita Artacho",-23.503664,-46.536764
1809554,"Av. Gov. Carvalho Pinto, 1171","Ref.: R. Manoel José Viana/ R Oxford",-23.513960,-46.538112
1812114,"R. Olho D'água Do Borges, 888","Ref.: Pça Félix / R Ibirajuba",-23.499380,-46.501573
1814571,"R. Entre Rios, 680","Ref.: Av Cangaiba",-23.505812,-46.518332
1814577,"R. Jequeri, 94","Ref.: Rua Olho D Agua Do Borges",-23.500792,-46.500973
1814600,"R. S. Florêncio, 1464","Ref.: Residencial Solar",-23.508960,-46.530562
1814648,"R. Olho D'água Do Borges, 300","Ref.: Rua Lauro De Freitas",-23.497063,-46.506598
1814649,"R. Uniflor","",-23.502695,-46.501175
1814652,"Av. Cangaiba, 1114","",-23.511090,-46.542946
1814653,"R. Mons. Meireles, 450","",-23.503437,-46.496483
1814654,"Av. Dr. Salomão De Vasconcelos, 685","",-23.500558,-46.524489
1814655,"Av. Dr. Salomão De Vasconcelos, 400","",-23.503447,-46.524401
1814656,"Av. Dr. Salomão De Vasconcelos, 700","Ref.: Av. Dr. Assis Ribeiro",-23.500440,-46.524377
1814657,"Av. Cangaiba, 1047","Ref.: Rua Cel. Newton Braga/rua Ibiraci",-23.511258,-46.543778
1814659,"R. Pastoril De Itapetinga, 642","Ref.: Rua Careiro/rua Manoel Felipe Teixeira",-23.502962,-46.502995
1814660,"Av. Tarumã, 378","Ref.: Rua José Caroal/trav. Francisco Catete",-23.510796,-46.527053
1814661,"Ac. Acesso","Ref.: Saída Do Túnel De Acesso Ao Jd. Keralux",-23.499784,-46.523950
1814662,"Via Parque","Ref.: Entrada Do Pq. Ecológico Do Tietê",-23.495516,-46.520135
1814664,"R. Jequeri, 296","",-23.499048,-46.499752
1814665,"R. Jardim Das Margaridas, 272","",-23.508112,-46.513053
1814666,"R. Jardim Das Margaridas, 607","Ref.: Assoc. Grupo Da Melhor Idade Gente Feliz",-23.505082,-46.513445
1814667,"Av. Dr. Assis Ribeiro, 1931","Ref.: R Manoel Soares / R Jacira Artacho",-23.502288,-46.534709
1814669,"R. Bolívar Ribeiro Boaventura, 347","",-23.506907,-46.500503
1814670,"R. Cel. Meireles, 1175","Ref.: Rua Suiça",-23.513140,-46.536596
1814671,"R. Mons. Meireles, 252","",-23.503538,-46.498554
1814672,"R. Demétrio Levedis, 19","Ref.: Praça Cel. Ezequiel",-23.502270,-46.510835
1814673,"R. Juriti-piranga, 145","R. Juriti-piranga, 145 Ref.: Ubs Jardim São Francisco",-23.498085,-46.530001
1814674,"R. Carlos Bigatti, 37","Ref.: Praça Silvio Altapini",-23.503246,-46.510292
1814675,"R. Guirá Acangatara, 30","Ref.: R Maracanã-guaçú",-23.498896,-46.528751
1814676,"R. Guirá Acangatara, 216","",-23.499072,-46.526786
1900822,"Estr. De Itapecerica, 5105","Ref.: 5104 R Domingos Peixoto Da Silva",-23.660531,-46.777327
1900844,"Estr. De Itapecerica, 3723","Ref.: R Antonio Salvia",-23.658221,-46.764801
1900868,"R. Atos Tomás Ferraciu, 77","Ref.: Av 'cdorsant'anna",-23.671110,-46.769394
1900906,"R. João Robalo, 99","Ref.: R Vera Do Nascimento Oliveira",-23.681157,-46.781136
1903436,"Estr. De Itapecerica, 6520","Ref.: R Silva De Faria Marcondes/ Cond. Village De Las Palmas",-23.669362,-46.785562
1903490,"R. Carlos Blum, 42","Ref.: Rua Nilton Machado De Barros",-23.668717,-46.793859
1903729,"R. Alfredo Lorenz, 296","",-23.658352,-46.782287
1903849,"R. Mercedes Tesser Pochini","Ref.: Rua Alessandro Capece",-23.676095,-46.770058
1903852,"Estr. De Itapecerica, 2945","Ref.: Rua Rafaela Miraglia Scoppetta",-23.653542,-46.759556
1903853,"Estr. De Itapecerica, 2976","Ref.: Rua Rafaela Scoppetta",-23.653641,-46.759729
1903881,"Av. Ellis Maas, 679","Ref.: Igreja Universal Do Reino De Deus",-23.666196,-46.771211
1903882,"Av. Com. Sant'anna, 92","",-23.667812,-46.773108
1903883,"Av. Com. Sant'anna, 514","",-23.671335,-46.773048
1903886,"Pça. Irmãs Nilza E Rosilene, 387","Ref.: Rua Póvoa De Varzim",-23.651981,-46.789433
1903887,"R. Povoa De Varzim, 79","Ref.: Estrada Pirajussara-valo Velho",-23.650168,-46.791457
1903888,"R. Abílio Cesar, 1014","",-23.686511,-46.780254
1903889,"R. Garcia Orta, 36","Ref.: Rua Bernardo Gomes De Brito",-23.683754,-46.789736
1903890,"Av. Prof.dr. Telêmaco H. M. Van Langendonck","",-23.660920,-46.769394
1903891,"Av. Prof.dr. Telêmaco H. M. Van Langendonck","",-23.661057,-46.769456
1903892,"R. Francesco Martini","",-23.650964,-46.784202
1903893,"Pça. Dr. Teodorico Almeida Bessa","",-23.673652,-46.791060
1903894,"R. Mercedes Tesser Pochini, 130","Ref.: Rua Linhares De Lacerda",-23.673898,-46.768029
1903899,"Ponto Móvel 2 - Pl 6","Term. Capelinha",-23.654797,-46.763037
1903900,"Ponto Móvel 3 - Pl 6","Term. Capelinha",-23.654922,-46.762887
1903903,"Ponto Móvel 1 - Pl 2","Term. Capelinha",-23.654150,-46.762368
1903904,"R. Eduardo Carige Barauna, 35","",-23.667820,-46.791989
2009230,"Av. Aricanduva, 0","Ref.: 12000 Estr Fazenda Do Carmo",-23.587742,-46.481326
2009254,"R. Atucuri, 554","Ref.: Entre As Ruas Pedreira De Freitas E Rua Pero Nunes",-23.549449,-46.547596
2009256,"R. Lutécia, 2000","Ref.: Próximo A Rua Osvaldo Arouca",-23.560961,-46.540701
2009257,"R. Nova Jerusalém","",-23.547656,-46.549512
2009259,"R. Lutécia, 1921","Ref.: Av. Rainha Santa",-23.560448,-46.540881
2009260,"Av. Itaquera, 481","",-23.555884,-46.518065
2009261,"R. Francisca De Paula, 275","Ref.: Prox. Av. 19 De Janeiro",-23.556758,-46.529507
2009263,"R. Lutécia, 1730","Ref.: Rua Ranieri Giovani Baptista Pitori",-23.558264,-46.541745
2110601,"R. Ságuairu, 541","Ref.: R Antonio Nascimento Moura",-23.511406,-46.656058
2113194,"Av. Eng. Caetano Alvares, 1902","Ref.: R Elias Gannam",-23.498999,-46.663828
2113352,"Av. Lasar Segall, 87","Ref.: Av. Imirim",-23.482033,-46.656212
2113360,"R. Brazeliza Alves Carvalho, 323","Ref.: Rua Prof. Hermenegildo De Campos Almeida",-23.512664,-46.650637
2113373,"Av. João Dos Santos Abreu","Av. João Dos Santos Abreu Ref.: 2113373 - Tp 1745/51",-23.482051,-46.671629
2113374,"R. Prof. Dario Ribeiro, 1615","Ref.: Rua Zilda",-23.491922,-46.662707
2113375,"R. Prof. Dario Ribeiro, 383","",-23.491507,-46.665963
2113376,"Av. Direitos Humanos, 65","Ref.: Posto Ipiranga",-23.488254,-46.653624
2113377,"Av. Otaviano Alves De Lima, 572","Ref.: Pça Alvaro Simões De Suza",-23.515054,-46.659637
2113378,"Av. Eng. Caetano Alvares, 1117","",-23.509235,-46.670420
2113380,"R. Ságuairu, 581","",-23.511052,-46.655217
2113381,"R. Antônio Nascimento Moura, 291","",-23.508762,-46.653648
2113382,"R. Zilda, 269","",-23.497215,-46.660851
2113383,"Av. Eng. Caetano Alvares, 7540","",-23.493601,-46.659450
2113384,"R. Águas Virtuosas, 1214","",-23.495690,-46.660662
2113386,"R. Relíquia, 118","",-23.511667,-46.661960
2201655,"Av. Ângelo Cristianini, 1570","Ref.: Rua Guaicuri",-23.691846,-46.644172
2201656,"Av. Ângelo Cristianini, 1369","Ref.: R Olegario Paiva",-23.689927,-46.643487
2202294,"R. Por. Rubens Lopes, 400","Ref.: Rua Publico Pimentel",-23.675814,-46.650670
2202315,"Av. Pedro De Avos, 193","Ref.: Rua Vitor Antonio",-23.683848,-46.639234
2202353,"R. Sebastião Afonso, 722","Ref.: Rua Dr. Silvio De Campos (tp 509m/10 E 21) Oposto Ao N.º 723",-23.679483,-46.636184
2202413,"R. Álvares Fagundes, 383","Ref.: R Marco Palmezzano",-23.668070,-46.647400
2202997,"Av. Yervant Kissajikian, 2332","",-23.677311,-46.658673
2203015,"R. Caetano Soares Viana, 37","Ref.: Rua Maria Clotilde M. Rocha",-23.684806,-46.652642
2203017,"R. Caetano Soares Viana, 37","Ref.: Rua Maria Clotilde M. Rocha (tp 5106/10 E 31)",-23.684578,-46.653235
2203020,"R. Sg. Geraldo Santana, 160","Ref.: Rua José Jardim Da Silveira",-23.663605,-46.689671
2203027,"R. Por. Rubens Lopes, 593","Ref.: Rua Dr. Nestor Sampaio Penteado(tp 6358/41)",-23.675752,-46.650683
2203039,"R. Sg. Geraldo Santana, 155","Ref.: Rua Sgto. Donato Ribeiro",-23.664901,-46.678883
2203040,"R. Benedito Gomes, 26","Ref.: Rua Rafael Peixe",-23.686265,-46.657926
2203047,"R. Sg. Geraldo Santana, 435","Ref.: Rua Gen Antonio Tavares Motta",-23.664225,-46.679954
2203048,"R. Maria Clotilde Martins Rocha, 552","",-23.685251,-46.653978
2203072,"Av. Ângelo Cristianini, 1539","Ref.: Rua Guaicuri",-23.691700,-46.644073
2203105,"R. Maria Clotilde Martins Rocha, 577","",-23.685316,-46.654308
2203120,"Av. Marari, 444","",-23.665493,-46.664516
2203121,"Av. Ângelo Cristianini, 468","Ref.: Lateral Da Escola Prof. José Nascicmento E Oposto Ao 98º Dp Nº 467.",-23.685136,-46.637638
2203122,"R. Dr. Djalma Pinheiro Franco, 1028","",-23.655346,-46.668771
2203123,"R. Fr. Lourenço De Alcântara","",-23.690368,-46.649575
2203125,"Av. Cupece, 2128","Ref.: Praça Luigi Palma",-23.661520,-46.663319
2203126,"R. David Eid, 1058","",-23.678649,-46.670647
2203128,"R. Vicente Leite, 237","Ref.: Av Cupecê",-23.664267,-46.656871
2203129,"Pça. Joaquim Honorato De Camargo, 95","Ref.: R. Pedro Rodrigues Beja",-23.672476,-46.659549
2203131,"Av. Rodrigues Montemor, 946","Ref.: Rua Com. Italo Franceschi",-23.666583,-46.652432
2203133,"R. Prof. Freitas Julião, 21","Ref.: Rua Alcides Arguedas",-23.688736,-46.638047
2203134,"R. Prof. Freitas Julião, 21","Ref.: Rua Alcides Arguedas",-23.688736,-46.638047
2203135,"R. Rainha Das Missões","",-23.688566,-46.648535
2203136,"R. Oscar De Barros, 262","Ref.: Rua Benedito Gomes",-23.686384,-46.659076
2203137,"Av. Gaspar De Brito, 333","Ref.: Rua Domingos F. Bittencourt",-23.672726,-46.662294
2203138,"Av. Gaspar De Brito, 343","Ref.: Rua Domingos F. Bittencourt",-23.672738,-46.662148
2203139,"Estação De Transf. Jd. Miriam","Av. Cupece, 5651 Ref.: Avenida Garcia De Avila",-23.681859,-46.637026
2203140,"Estação De Transf. Jd. Miriam","Av. Cupece, 5550 Ref.: Avenida Garcia De Avila",-23.681498,-46.637872
2203141,"Parada Bras De Abreu","Av. Cupece, 5175 Ref.: Avenida Bras De Abreu",-23.679220,-46.640161
2203142,"Parada Bras De Abreu","Av. Cupece, 5170 Ref.: Avenida Bras De Abreu",-23.679228,-46.640330
2203143,"Parada Santo Afonso","Av. Cupece, 4805 Ref.: Av. Santo Afonso",-23.676093,-46.641970
2203144,"Parada Santo Afonso","Av. Cupece, 4729 Ref.: Av. Santo Afonso",-23.675562,-46.642294
2203145,"Parada Rio Grande Do Sul","Av. Cupece, 4283 Ref.: R. Rio Grande Do Sul",-23.672377,-46.644757
2203146,"Parada Rio Grande Do Sul","Av. Cupece, 4336 Ref.: R. Rio Grande Do Sul",-23.672529,-46.644677
2203147,"Parada Públio Pimentel","Av. Cupece, 3822 Ref.: R.públio Pimentel",-23.669578,-46.648763
2203148,"Parada Públio Pimentel","Av. Cupece, 3779 Ref.: R. Públio Pimentel",-23.669331,-46.648976
2203149,"Parada Rodrigues Mont Mor","Av. Cupece, 3379 Ref.: Av. Rodrigues Monte Mor",-23.667637,-46.652807
2203150,"Parada Rodrigues Mont Mor","Av. Cupece, 3320 Ref.: Av. Rodrigues Mont Mor",-23.667468,-46.653308
2203151,"Parada Paulo Albernaz","Av. Cupece, 3054 Ref.: R. Professor Mangabeira Paulo Albernaz",-23.666463,-46.655747
2203152,"Parada Paulo Albernaz","Av. Cupece, 2933 Ref.: R. Professor Mangabeira Paulo Albernaz",-23.665959,-46.656720
2203153,"Parada Rubens Facchini","Av. Cupece, 2542 Ref.: R. Rubens Facchini",-23.664133,-46.660501
2203154,"Parada Rubens Facchini","R. Juan De La Cruz Ref.: R.rubens Facchini",-23.664008,-46.660444
2203155,"Parada Parque Do Nabuco","Av. Ver. João De Luca",-23.660876,-46.663215
2203156,"Parada Parque Do Nabuco","R. Juan De La Cruz",-23.661475,-46.662654
2203157,"Parada Vila Canaã","Av. Ver. João De Luca, 1601 Ref.: R. Santa Matilde/r. Palacios",-23.656800,-46.665140
2301751,"Av. Pres. João Goulart, 141","Ref.: Av Sen.teotonio Vilela",-23.720978,-46.696772
2301758,"R. Rubem Souto De Araújo, 948","Ref.: Rua Venâncio Poletti",-23.740147,-46.707145
2301771,"R. José Inácio Da Silva, 40","Ref.: R Sebastiao Pimentel",-23.723337,-46.705270
2301833,"Av. Rubens Montanaro De Borba, 127","Ref.: Rua Duzolina Gracioli Eleno",-23.708139,-46.694298
2301841,"Av. Matias Beck, 100","Ref.: Av Gregorio Bezerra",-23.709962,-46.689161
2314360,"Av. Pres. João Goulart, 479","Ref.: R. Jose Mallofre Segarra",-23.722011,-46.694449
2314370,"Av. Pres. João Goulart, 2516","Ref.: R Viterbo",-23.722529,-46.677288
2314371,"Av. Pres. João Goulart, 2759","Ref.: R Reinaldo Manuel",-23.722426,-46.677405
2314377,"Av. Lourenço Cabreira, 793","Ref.: Praça João Beiçola",-23.714959,-46.690145
2314378,"Av. Rubens Montanaro De Borba, 689","Ref.: R Jose Abel Galvão",-23.712805,-46.691565
2314388,"R. Rubem Souto De Araújo, 1200","Ref.: Rua Viriato Leão De Moura",-23.741659,-46.706873
2314459,"Av. Rodrigues Vilares, 442","",-23.727091,-46.703527
2314474,"Av. Manuel Alves Soares, 295","Ref.: R. Dovilio Prevato",-23.723444,-46.688182
2314488,"Av. Manuel Alves Soares, 310","Ref.: Av. Pres. João Goulart",-23.724205,-46.687773
2314493,"Autódromo","",-23.706480,-46.688469
2314504,"R. José Bochiglieri, 39","",-23.738102,-46.708972
2314512,"R. Plínio Schmidt, 385","Ref.: Tp - 695y-21 - Oposto Ao Nº385",-23.705183,-46.688309
2314514,"Primavera-interlagos","",-23.722175,-46.691809
2314516,"Av. Da. Belmira Marin, 461","Ref.: Rua Doutor Oscar Andrade Lemos",-23.735228,-46.695472
2314517,"Av. Da. Belmira Marin, 112","Ref.: Av. Sen. Teotonio Vilela",-23.732927,-46.696731
2314523,"R. Frederico René De Jaegher, 1460","Ref.: Av. Guilherme Henscher",-23.726476,-46.714534
2314547,"R. Francisco Pinto De Andrade, 0","Ref.: Tp 6076-41",-23.718529,-46.697027
2314558,"R. Plínio Schmidt, 385","R. Plínio Schmidt, 385 Ref.: Tp 502j-10 502j-22 - Oposto Ao Nº 385",-23.705136,-46.688288
2314560,"Av. Prof. Papini, 244","Ref.: Rua Martinópolis",-23.713416,-46.705350
2314562,"R. Nsa. Sra. Do Outeiro, 131","",-23.713443,-46.699747
2314564,"Av. Sen. Teotônio Vilela, 7900","",-23.764846,-46.716794
2314567,"Av. Sen. Teotônio Vilela, 7073","",-23.758491,-46.714814
2314569,"R. Cassiano Dos Santos, 499","",-23.719758,-46.701612
2314579,"R. Raul Leal, 34","Ref.: Rua Fernão Alvares De Oliveira",-23.716434,-46.683267
2314581,"Av. Jair Ribeiro Da Silva, 52","Ref.: Frente À Estação Autodromo",-23.703460,-46.686053
2314582,"Pça. Cristina Boemer Rochel","",-23.743928,-46.705828
2314583,"R. Pomba Trocaz","Ref.: Esquina Da Rua Pomba Do Mar",-23.724041,-46.670719
2314585,"R. José Luís Monteiro, 684","Ref.: Rua Carolina Michaelis",-23.729984,-46.708360
2314586,"R. Frutuoso Barbosa, 68","",-23.713075,-46.689287
2314587,"R. Álvares Correia, 742","",-23.733680,-46.703372
2314589,"R. Virgínia Maria Da Conceição, 320","",-23.723083,-46.703645
2314592,"R. Frederico René De Jaegher, 1502","",-23.725069,-46.711204
2314593,"R. Frederico René De Jaegher, 965","",-23.721843,-46.706716
2314594,"R. Frederico René De Jaegher, 2026","",-23.726724,-46.715580
2314595,"Av. Matias Beck, 21","Ref.: Rua Gregorio Bezerra",-23.709224,-46.689004
2314596,"Av. Pres. João Goulart, 422","",-23.722056,-46.695252
2314597,"R. Augusto Felipe Simões, 2759","",-23.719572,-46.676943
2409017,"Av. Itaquera, 3888","Ref.: R Serra Das Divisões",-23.553713,-46.491469
2409088,"Av. Alziro Zarur, 1961","Ref.: Rua Luis Norberto Freire",-23.570171,-46.489840
2409142,"Av. Líder, 2523","",-23.556532,-46.470697
2409143,"Av. Líder","",-23.556695,-46.470465
2409144,"R. Costeira, 54","Ref.: Paralela A Av. Aricanduva",-23.556747,-46.513514
2409145,"Av. Itaquera, 1344","",-23.554800,-46.515891
2409146,"Av. Principal Leste","Ref.: Após O Shopping Aricanduva",-23.562555,-46.499544
2409147,"R. Morubixaba, 709","Ref.: Próximo A Av. Maria Luiza Americano",-23.564265,-46.477154
2409148,"R. Morubixaba, 198","Ref.: Próximo A Av. Maria Luiza Americano",-23.564381,-46.477044
2409159,"R. Valença Do Minho","",-23.559322,-46.495525
2409160,"R. Elza Dos Anjos Neves","Ref.: Próximo A Rua Bom Jesus Do Monte",-23.567205,-46.494414
2409162,"R. Elza Dos Anjos Neves, 703","Ref.: Próximo A Rua Bom Jesus Do Monte",-23.567286,-46.494351
2409163,"R. Açaí, 413","Ref.: Próximo A Av. Itaquera",-23.552740,-46.512766
2409168,"R. Serra Das Divisões, 98","Ref.: Rua Soares De Abreu",-23.554162,-46.490510
2409169,"R. Serra Das Divisões, 117","Ref.: Praça Vila Bandeirantes",-23.554250,-46.490332
2409172,"Av. Maria Luiza Americano, 2763","",-23.558253,-46.475404
2409173,"R. Ari José Leguori","",-23.554713,-46.500580
2409174,"Av. Itaquera, 1503","Ref.: Rua Toledo Lorencini",-23.550211,-46.510656
2409175,"Baia Interna Alziro Zarur, 14","",-23.570284,-46.489606
2409176,"Baia Interna Alziro Zarur, 14","",-23.570386,-46.489915
2514748,"Av. Souza Ramos, 2008","Ref.: Term Cidade Tiradentes",-23.581936,-46.409791
2514749,"Av. Souza Ramos, 245","Ref.: Rua Sarah Kubsticheck / Rua Marcio Beck Machado",-23.581369,-46.410562
2514795,"Estr. Iguatemi, 3831","Ref.: R Dos Cunha",-23.574524,-46.415982
2514805,"Estr. Iguatemi, 2742","Ref.: R Inacio Monteiro / Acesso Rua Souza Ramos Ponto 18",-23.566675,-46.415783
2515291,"R. Wilma Flor, 599","",-23.577835,-46.397726
2515306,"R. José Francisco Brandão, 821","",-23.588889,-46.395543
2515307,"R. José Francisco Brandão","Ref.: Centro De Adolescencia",-23.588401,-46.395726
2515333,"R. Edmundo Orioli, 166","R. Edmundo Orioli, 166 Ref.: Rua Pe. Aldemar Moreira",-23.600916,-46.393824
2515334,"R. Wilson Fernando S. Carvalho, 75","Ref.: Próximo A Rua Inácio Monteiro",-23.578202,-46.392481
2515335,"R. Wilson Fernando S. Carvalho","Ref.: Próximo A Rua Inácio Monteiro",-23.578276,-46.392386
2515336,"Av. Luiz José Costa - Leandro","",-23.602976,-46.402179
2515337,"Av. Luiz José Costa - Leandro","",-23.604051,-46.403028
2515338,"R. Jaime Ovale","",-23.590571,-46.382348
2515342,"R. Dr. Guilherme De Abreu Sodre, 234","",-23.570146,-46.407473
2515343,"R. Wilma Flor, 599","Ref.: Curva Da Morte",-23.577299,-46.397354
2515344,"R. Patrício Teixeira, 457","Ref.: Próximo A Rua Barão De Alagoas",-23.587965,-46.391886
2515345,"R. Inácio Monteiro, 3671","Ref.: Rua Paes Leme",-23.588217,-46.380409
2515346,"R. Inácio Monteiro, 115","Ref.: Av. Elísio Teixeira Leite, Altura Do Nº 3400",-23.587282,-46.381503
2515347,"R. Inácio Monteiro, 108","Ref.: Estrada Iguatemi",-23.564395,-46.414876
2515349,"R. Dr. Guilherme De Abreu Sodre, 67","",-23.564576,-46.408755
2515350,"R. Antônio Carlos Migues Lopes, 1773","",-23.582166,-46.392827
2515351,"R. Inácio Monteiro, 5","Ref.: Prox. Rua Alphonse Joalier",-23.586612,-46.381474
2515352,"R. Inácio Monteiro, 120","Ref.: Próximo A Av. Ragueb Chohfi",-23.564281,-46.413745
2515353,"R. Inácio Monteiro, 17","Ref.: Oposto À Rua Gildo Lopes",-23.587918,-46.381016
2515354,"R. Inácio Monteiro","Ref.: Av. Guilherme De Abreu Sodré",-23.564163,-46.408893
2515355,"Estr. Iguatemi, 2143","Ref.: Sítio San Marino",-23.587429,-46.414858
2515356,"R. Dos Têxteis, 652","",-23.587842,-46.406214
2515357,"R. Dos Têxteis, 1208","",-23.592048,-46.403472
2515358,"R. Dos Têxteis, 2374","",-23.596555,-46.395671
2515359,"R. Dos Têxteis, 2540","",-23.595029,-46.395785
2515361,"R. Dos Têxteis","",-23.596481,-46.400057
2515362,"R. Dos Têxteis","",-23.597262,-46.398468
2515364,"R. Inácio Monteiro, 980","",-23.564747,-46.405884
2515365,"R. Inácio Monteiro, 5940","",-23.573024,-46.393977
2515366,"R. Inácio Monteiro, 6958","",-23.580549,-46.389084
2515367,"R. Inácio Monteiro, 8390","",-23.582991,-46.385604
2515368,"R. Inácio Monteiro, 7339","",-23.583117,-46.385444
2515369,"R. Inácio Monteiro, 6001","",-23.573362,-46.393735
2515370,"R. Inácio Monteiro, 903","",-23.568088,-46.402253
2515371,"R. Inácio Monteiro","",-23.571356,-46.395779
2515372,"R. Dr. Guilherme De Abreu Sodre","",-23.565202,-46.408901
2515374,"Estr. Iguatemi, 6980","Ref.: Rua Ismael Cadorna/ Rua Marcio Becker",-23.585556,-46.414770
2515375,"R. Da. Eloá Do Valle Quadros, 624","Ref.: Rua Nascer Do Sol/ass. Cult. Ginga Do Gueto",-23.589436,-46.411184
2515377,"Av. Nascer Do Sol, 1440","Ref.: Condomínio Samambaia/rua Igarapé Da Missão",-23.594811,-46.413269
2515378,"R. Da. Eloá Do Valle Quadros, 143","Ref.: Campo De Futebol Nova Era",-23.588476,-46.410123
2515379,"R. Cachoeira De Paulo Afonso","",-23.586656,-46.386283
2515380,"R. Ituruna","Ref.: Estrada Do Iguatemi / Rua 24 De Agosto - Ponto 19",-23.566108,-46.416098
2515381,"R. Ituruna","Ref.: Rua 24 De Agosto / Estrada Do Iguatemi Ponto 17",-23.567144,-46.416323
2515382,"Av. Souza Ramos, 95","Ref.: Igreja Universal / Rua Inácio Monteiro",-23.564721,-46.413241
2515383,"Av. Souza Ramos, 9","Ref.: Cei Antonio Ferreira Lima",-23.566010,-46.413246
2515384,"Av. Souza Ramos, 155","Ref.: Comércio",-23.572979,-46.413927
2515385,"Av. Souza Ramos, 110","Ref.: Rua Dos Cunhas",-23.574144,-46.412659
2515386,"Av. Souza Ramos, 345","Ref.: Condominio Da Paz II",-23.576115,-46.411854
2515387,"Av. Souza Ramos, 205","Ref.: Acesso A Rua Arroio Sarandi",-23.578204,-46.411882
2515388,"Av. Souza Ramos, 77","Ref.: Rua Inacio Monteiro",-23.564911,-46.413128
2515389,"Av. Souza Ramos, 38","",-23.566925,-46.413225
2515390,"Av. Souza Ramos, 305","Ref.: Condominio Da Paz II Lado Oposto",-23.575778,-46.411495
2515392,"Estr. Iguatemi, 3224","Ref.: Rua Marcio Beck Machado",-23.579732,-46.415230
2515396,"Estr. Iguatemi, 3720","Ref.: Rua Coração Sertanejo/ Rua Inácio Monteiro",-23.571839,-46.415462
2515401,"Estr. Iguatemi, 3137","Ref.: Rua Santa Teresa",-23.581043,-46.415425
2515403,"R. Dos Têxteis, 360","Ref.: Rua Santa Adelaide",-23.585585,-46.407313
2515405,"R. Vinte E Quatro De Agosto, 100","Ref.: Rua Ituruna Com Rua Paulo Gracindo",-23.566304,-46.416844
2515406,"R. Vinte E Quatro De Agosto, 100","Ref.: Av. Paulo Gracindo / Rua Ituruna",-23.566469,-46.416760
2515407,"R. Coração Sertanejo, 599","Ref.: Entre A Rua Henriqueta Brieba E Rua Sylvio De Lima Gonçalves Pereira",-23.567188,-46.416974
2515408,"R. Severino Souto Maior, 188","",-23.604185,-46.404406
2515409,"R. Severino Souto Maior, 188","Ref.: Av Jose Da Costa - Leandro/rua Luis Bordese",-23.604171,-46.404398
2515410,"Av. Souza Ramos, 406","Ref.: Lojas De Doce Karol",-23.581982,-46.410359
2515411,"R. José Francisco Brandão, 400","Ref.: Escola Aureliano Leite / Paróquia Da Comunidade",-23.592315,-46.393762
2515412,"R. Cristovão De Molina","Ref.: Rua Dos Texteis - Sentido Bairro",-23.587984,-46.396427
2515413,"R. Cristovão De Molina","Ref.: Rua Dos Texteis - Sentido Centro",-23.587974,-46.396644
2515414,"Terminal Cidade Tiradentes","",-23.583029,-46.407553
2515416,"Terminal Cidade Tiradentes","",-23.583055,-46.407441
2600262,"R. Augusta, 843","Ref.: R Costa / Rua Dna. Antonia De Queiroz",-23.552346,-46.653224
2600672,"Paulista","",-23.555071,-46.662131
2600673,"R. Mato Grosso, 428","Ref.: Ts 7245/10",-23.550756,-46.659338
2600676,"R. Mq. De Paranaguá, 324","",-23.551358,-46.649490
2600677,"R. Bela Cintra, 768","Ref.: Rua Antonio Carlos",-23.554542,-46.659630
2600681,"Av. Angélica, 1281","",-23.544118,-46.657054
2600682,"Av. Angélica, 2197","",-23.551548,-46.660666
2600685,"R. Augusta, 344","",-23.550854,-46.648948
2600690,"Av. Paulista, 2584","Ref.: Rua Da Consolação X Av. Angelica",-23.555178,-46.663251
2702225,"Av. Do Cursino, 4469","Ref.: R Gustav Klimt",-23.639724,-46.613553
2702246,"R. Jean De La Huerta, 537","Ref.: R D.vilares",-23.629831,-46.613427
2702696,"Av. Miguel Stefano, 2900","Ref.: R Dr.jose Bento Ferreira",-23.651946,-46.619017
2702698,"Av. Miguel Stefano, 3031","Ref.: Jardim Botânico/rua Etruscos",-23.639668,-46.627452
2705131,"Av. Bosque Da Saúde, 1480","Ref.: Rua Samanbaia",-23.613592,-46.624063
2705244,"R. Vergueiro, 5452","Ref.: R Saturino Dos Santos",-23.594775,-46.619293
2705258,"Av. Oswaldo Aranha, 79","Ref.: R D.macario",-23.614054,-46.609688
2705944,"Santos-imigrantes","",-23.595716,-46.620723
2705971,"R. Dr. René Fernandes, 435","",-23.661953,-46.631678
2705974,"Av. Bosque Da Saúde, 1471","Ref.: Rua Samambaia",-23.613627,-46.624642
2705975,"R. Gen. Enrico Caviglia, 99","",-23.636464,-46.617054
2705976,"R. Ribeiro Lacerda, 777","",-23.618388,-46.626645
2705977,"R. D. Macário","",-23.618865,-46.612471
2705980,"R. D. Bernardo Nogueira","",-23.608194,-46.619805
2705981,"Pça. Leonor Kaupa","Ref.: Av. Prof. Abraão De Morais",-23.619896,-46.627503
2705982,"R. D. Bernardo Nogueira, 632","Ref.: Rua Dom Antônio Barreiros",-23.608210,-46.622212
2705983,"R. Porangaba, 153","Ref.: Rua Tristão Mariano",-23.610594,-46.626867
2705984,"R. Ibirarema, 265","",-23.610125,-46.627627
2705985,"Ac. A Av Affonso D. Taunay","Ref.: Viaduto Ministro Aliomar Baleeiro",-23.629620,-46.630383
2808791,"Av. Paranaguá, 134","Ref.: R Belem De Sao Francisco",-23.504412,-46.475350
2808794,"R. Prof. Antônio De Castro Lopes, 42","Ref.: R Fábio José Bezerra / Av Sao Miguel",-23.506114,-46.476535
2812101,"R. Araçazal, 217","Ref.: Oposto Ao Nº 253 - Entre A Av. Dr. Assis Ribeiro E Rua Apaúra.",-23.488854,-46.504143
2814566,"Av. Olavo Egídio De Souza Aranha, 1596","Ref.: R Aiquara",-23.495233,-46.497010
2814581,"R. Guilherme De Oliveira Sa, 567","Ref.: R Antonio Tertuliano",-23.498929,-46.481100
2814628,"R. Antônio Leite Penteado, 618","Ref.: R Wenceslau Guimaraes",-23.489399,-46.488277
2814629,"R. Antônio Leite Penteado, 287","Ref.: R Tomas Braga",-23.488178,-46.487411
2815167,"Av. Milene Elias, 181","",-23.492347,-46.479815
2815173,"R. Romelândia, 242","Ref.: R Jácome T. Menezes",-23.500629,-46.491969
2815191,"USP Leste","",-23.485889,-46.503039
2815208,"Ac. Cptm Dom. Ermelino Matarazzo, 0","",-23.485303,-46.481112
2815214,"R. Bispo Isaias F Sucasas, 601","",-23.486902,-46.482848
2815215,"R. Domingos Scarpel, 120","Ref.: Próximo A Pça. Cel. Saturnino De Carvalho",-23.489224,-46.477513
2815216,"R. Sen. Elói De Souza","Ref.: Próximo A Av. Assis Ribeiro",-23.486807,-46.502485
2815217,"R. Nova Palmeira, 160","",-23.489112,-46.502155
2815218,"Av. Milene Elias, 612","Ref.: Rua Domingos Scarpel/rua Alto Pacaja",-23.489178,-46.478137
2815220,"R. Nova Palmeira, 221","Ref.: Rua Aracazal/rua Ribeira Do Amparo",-23.488730,-46.502495
2815221,"R. Sen. Elói De Souza, 398","Ref.: Trav. Guanaces/rua Chaval",-23.488591,-46.499781
2815222,"R. Sen. Elói De Souza, 398","Ref.: Rua Jaicos/trv. Guanaces",-23.488390,-46.499927
2815223,"R. Fernão Mendes Pinto, 1753","Ref.: Rua Ipixuna/praça Tronco Do Ipe",-23.492078,-46.489676
2815225,"R. Arlindo Bettio, 1000","Ref.: Próximo A Portaria 2 Da USP Leste",-23.482762,-46.497673
2815226,"R. Abel Tavares, 528","Ref.: Paróquia São Francisco De Assis",-23.494861,-46.468930
2815228,"R. Bispo E Martins, 271","Ref.: Rua Palmeiras",-23.480563,-46.494691
2815229,"R. Wenceslau Guimarães, 614","Ref.: Rua Lajedo",-23.489436,-46.492208
2815230,"R. Anísio De Abreu, 751","Ref.: Rua Maria Da C. Fernandes",-23.491753,-46.490271
2815231,"R. Anísio De Abreu, 760","",-23.491639,-46.490257
2815232,"R. Anísio De Abreu, 444","",-23.494420,-46.490983
2815233,"R. Anísio De Abreu, 471","",-23.494231,-46.490778
2815234,"R. Anísio De Abreu, 54","",-23.497768,-46.491715
2815235,"R. Anísio De Abreu, 74","",-23.497578,-46.491695
2911536,"R. Ribeiro De Moraes, 192","Ref.: R Martins Claro",-23.501567,-46.688154
2913193,"R. Guaiçara (vila Banc Munhoz), 188","Ref.: R Paulo Do Vale Junior",-23.486597,-46.685553
2913231,"Av. João Paulo Primeiro, 1300","Ref.: R Lourenco De Andrade",-23.482491,-46.687069
2913269,"R. Liberato Batista Bueno, 32","Ref.: Av Inajar De Souza",-23.474892,-46.670621
2913589,"R. Rio Verde, 554","R. Rio Verde, 554 Ref.: R. Carlos A. Moretti (tp 9031/10)",-23.484770,-46.703540
2913672,"R. Pascoal Da Costa, 4","Ref.: R Jose Garcia Rodrigues",-23.499840,-46.693031
2914523,"R. Pe. Feliciano Domingues, 89","Ref.: Sentido C/B - Lado Oposto Ao Nº 90",-23.484279,-46.702926
2914532,"R. Tomás De Kempis, 85","R. Tomás De Kempis, 85 Ref.: Av. Min. Petrônio Portela/guilherme Martz",-23.480489,-46.695519
2914533,"R. Leandro Bassano, 74","Ref.: Oposto - Rua Vicente De Souza",-23.480948,-46.696416
2914535,"R. Dos Morgados, 134","Ref.: Rua Abilio Primo Nalim",-23.478275,-46.695163
2914536,"Av. Min. Petrônio Portela, 2010","",-23.482654,-46.695153
2914537,"Av. Itaberaba, 3300","",-23.480146,-46.682051
2914538,"R. Rio Verde, 822","Ref.: 63 R-11",-23.486651,-46.703543
2914539,"R. Brig. Vilela Júnior, 110","Ref.: Pág. 37 - Coord. M27",-23.479728,-46.674059
2914540,"R. Brig. Vilela Júnior, 220","Ref.: Pág. 37 - Coord. M27",-23.479507,-46.675012
2914541,"Av. Paula Ferreira, 208","",-23.501804,-46.701883
2914543,"R. Valencio Augusto De B. Filho, 823","",-23.472065,-46.705087
2914544,"R. Sete Barras, 204","Ref.: Rua Pedro Oliveira Simões",-23.499780,-46.705329
2914546,"R. Raulino Galdino Da Silva, 727","Ref.: R. Manoel De Souza Azevedo",-23.472243,-46.701391
2914547,"R. Francisco Lotufo, 24","Ref.: Ama Vila Das Palmeiras",-23.494435,-46.685211
2914548,"Av. Elísio Teixeira Leite, 655","",-23.487321,-46.698022
2914549,"R. Parapuã, 548","",-23.479794,-46.691418
2914550,"Av. Fuad Lutfalla, 1156","",-23.480664,-46.707979
2914552,"Av. Min. Petrônio Portela, 158","Ref.: R. Cecília Da Silva X R. Manoel Da Costa",-23.496822,-46.703909
2914553,"Av. João Paulo Primeiro, 414","",-23.489662,-46.688365
2914555,"R. Prof. João Machado","Ref.: Pça. Da.amalia G Solitari / Av. Gen.edgar Facó",-23.497154,-46.706760
2914559,"Estr. Do Sabão, 1547","Ref.: E.e. Prof.º Galdino Lopes Chagas",-23.468757,-46.697525
2914560,"R. Prof. João Machado, 29","",-23.498765,-46.698376
2914561,"Pça. Pedro Blaserna (c. P. Portela)","Pça. Pedro Blaserna (c. P. Portela) Ref.: Av. Ministro Petrônio Portela",-23.488954,-46.698075
2914562,"Pça. Pedro Blaserna (c. P. Portela)","Pça. Pedro Blaserna (c. P. Portela) Ref.: Av. Ministro Petrônio Portela",-23.489134,-46.698154
2914563,"Pça. Pedro Blaserna (c. P. Portela)","Pça. Pedro Blaserna (c. P. Portela) Ref.: Av. Ministro Petrônio Portela",-23.489238,-46.698196
2914564,"Pça. Pedro Blaserna (c. P. Portela)","Pça. Pedro Blaserna (c. P. Portela) Ref.: Av. Ministro Petrônio Portela",-23.489019,-46.698044
2914565,"Pça. Pedro Blaserna (c. P. Portela)","Pça. Pedro Blaserna (c. P. Portela) Ref.: Av. Ministro Petrônio Portela",-23.489313,-46.698066
3014302,"Av. Paulo Guilguer Reimberg, 2538","Ref.: Rda Sereia",-23.776438,-46.696458
3014305,"Av. Antônio Carlos Benjamim Dos Santos, 3900","Ref.: Av. Paulo Guilguer Reimberg",-23.771862,-46.700120
3014306,"Av. Antônio Carlos Benjamim Dos Santos, 3973","Ref.: Av. Paulo Guilguer Reimberg",-23.771924,-46.699990
3014310,"Av. Antônio Carlos Benjamim Dos Santos, 3507","Ref.: Rua Juvenal Hudson Ferreira",-23.768707,-46.698574
3014368,"R. João Amos Comenius, 215","Ref.: R Durval Martins De Siqueira",-23.754992,-46.699890
3014375,"Av. Profa. Marta Maria Bernardes, 55","Ref.: R Goiaba Natal",-23.763137,-46.705621
3014414,"R. Pedro Escobar, 1157","Ref.: R Gabriel Pierre",-23.756409,-46.667622
3014425,"R. Pedro Escobar, 1042","Ref.: R Mancio Lima",-23.748617,-46.664733
3014462,"R. Gen. Renato Varandas De Azevedo, 56","Ref.: R Mj. Lucio Dias Ramos",-23.767559,-46.686153
3014540,"R. João Amos Comenius, 1044","Ref.: R. Dr. Armando Fajardo (tp 6031/10)",-23.757637,-46.705231
3014630,"Grajaú","",-23.736195,-46.697149
3014650,"Estr. Canal Da Cocaia, 1481","Ref.: Rua Belmiro Hessel",-23.744192,-46.670599
3014717,"Av. Ana Felícia Mendes, 1","Ref.: Pça. Chico Mendes",-23.768114,-46.703204
3014736,"R. Quéops, 0","Ref.: Rua Valsa Chorosa",-23.768758,-46.661901
3014742,"R. Jequirituba, 2235","",-23.740100,-46.685737
3014743,"Av. Paulo Guilguer Reimberg, 3115","Ref.: Av Carlos Alberto Bastos Machado",-23.780046,-46.691277
3014744,"R. Jequirituba, 574","",-23.726677,-46.690897
3014745,"R. João Amos Comenius","",-23.757435,-46.705292
3014746,"R. Opção Brasil Natal, 10","Ref.: 6056/10 “pq. Santacecília – Terminal Grajaú”",-23.763226,-46.697451
3014747,"Estr. Da Ligação, 58","",-23.755790,-46.664413
3014748,"Estr. Da Ligação, 134","",-23.755094,-46.662034
3014749,"Estr. Da Ligação, 111","",-23.755068,-46.661952
3014750,"Estr. Da Ligação, 252","",-23.755475,-46.659186
3014751,"Estr. Da Ligação, 252","",-23.755481,-46.658895
3014752,"Estr. Da Ligação","",-23.756144,-46.667186
3014753,"Estr. Da Ligação","",-23.756182,-46.667165
3014754,"Estr. Da Ligação, 55","",-23.755760,-46.664488
3014756,"Av. Da. Belmira Marin, 5965","Ref.: Rua Engº Guarany Torres",-23.759501,-46.659165
3014757,"Av. Da. Belmira Marin, 5621","",-23.759183,-46.662609
3014758,"Av. Da. Belmira Marin, 5915","",-23.759305,-46.661373
3014759,"Av. Da. Belmira Marin, 5981","",-23.759470,-46.658921
3014760,"R. Giovanni Bononcini, 227","Ref.: Rua Felipe Pedrell",-23.741303,-46.700366
3014761,"R. Giovanni Bononcini, 227","Ref.: Rua Felipe Pedrell",-23.741157,-46.700164
3014762,"R. Giovanni Bononcini, 209","",-23.739441,-46.698800
3014763,"R. Francisco Quadrio, 220","",-23.767918,-46.690091
3014766,"R. Cel. João Cabanas, 1061","Ref.: Rua Major Lucio Dias Ramos",-23.764093,-46.693014
3014767,"R. Nereu Bertini Magalhães, 565","",-23.765914,-46.683697
3014768,"R. Cel. João Cabanas, 1068","",-23.764066,-46.693017
3014769,"R. Nereu Bertini Magalhães, 566","",-23.765841,-46.683806
3014778,"R. Jequirituba, 2600","Ref.: Oposto A Rua Antolin Garcia",-23.741665,-46.683192
3014780,"Estr. Canal Da Cocaia, 2601","",-23.734957,-46.664034
3014782,"Estr. Do Barro Branco, 539","",-23.760827,-46.668903
3014784,"R. Prof. Aurélio Arroba Martins, 462","",-23.761830,-46.672721
3014785,"R. Juvenal Crem, 186","",-23.751592,-46.695225
3014787,"R. Júlio Gadda","",-23.749973,-46.670905
3014789,"R. Eugênio Guidugli, 212","",-23.744338,-46.684055
3014791,"Estr. Canal Da Cocaia, 899","",-23.747905,-46.672898
3014792,"Estr. Canal Da Cocaia, 1001","Ref.: Rua Gilberto Freyre",-23.746181,-46.671606
3014793,"R. Prof. Aurélio Arroba Martins, 322","Ref.: Rua Adelina Plunket",-23.759861,-46.674211
3014794,"R. Leri Santos, 98","Ref.: Av. Da. Belmira Marin",-23.735466,-46.694190
3014796,"Av. Grande São Paulo, 89","Ref.: Av. Da. Belmira Marin",-23.736413,-46.694984
3014801,"R. Giovanni Bononcini, 623","",-23.739796,-46.699009
3014802,"R. Giovanni Bononcini, 650","",-23.739996,-46.699178
3014803,"R. Ascânio Meo, 361","",-23.735048,-46.678677
3014804,"R. Ascânio Meo, 324","",-23.734861,-46.678372
3014805,"R. Giuseppe Tartini, 580","Ref.: R. Mto.miguel Arquerons",-23.752665,-46.702784
3014806,"R. Maria Cândida Ferreira, 220","Ref.: Rua Lagoa Da Tocha",-23.748272,-46.703550
3014807,"Terminal Grajaú - Pmv 36","Term. Grajaú",-23.736292,-46.696819
3014808,"Terminal Grajaú - Pmv 25","Term. Grajaú Ref.: Pmv 25",-23.737933,-46.697812
3014809,"R. Universal, 49","",-23.740671,-46.660900
3014810,"R. Henrique Muzzio, 587","",-23.783673,-46.682696
3014811,"R. Valentim Lorenzetti, 114","",-23.746970,-46.665803
3014812,"R. Mâncio Lima, 295","Ref.: Ruas Pedro Escobar",-23.748872,-46.665082
3014814,"R. Dante Ambrósio, 210","",-23.774095,-46.688091
3014815,"R. Gen. José Corrêa, 151","",-23.771749,-46.689389
3014816,"R. Agenor Klaussner, 151","",-23.770037,-46.688928
3014817,"R. Gen. José Corrêa, 234","",-23.771634,-46.689544
3014818,"R. Gen. José Corrêa, 500","",-23.771439,-46.691899
3014819,"R. Gen. José Corrêa, 500","",-23.771278,-46.691915
3014820,"R. Jupirá Cunha Marcondes, 65","",-23.767742,-46.694409
3014821,"R. Jupirá Cunha Marcondes, 65","",-23.767663,-46.694414
3014822,"Pça. Sérgio Talans","Ref.: Travessa Sergio Talans",-23.768881,-46.692699
3014823,"Pça. Sérgio Talans, 14","Ref.: Ru Joel De Carvalho",-23.769620,-46.693084
3014824,"R. Charles Avison, 290","",-23.734965,-46.676180
3014825,"Terminal Grajau - Pmv 34","Term. Grajaú",-23.736384,-46.696908
3014826,"R. Cel. João Cabanas, 196","Ref.: Rua Mal. Emanoel Marques Porto",-23.762332,-46.685637
3014827,"R. Cel. João Cabanas, 201","Ref.: Rua Mal. Emanoel Marques Porto",-23.762361,-46.685652
3014828,"R. Cel. João Cabanas, 314","Ref.: Travessa Cel. João Cabanas",-23.762965,-46.686546
3014829,"R. Cel. João Cabanas, 206","Ref.: Rua Coronel João Cabanas Com Rua Manoel Vergueiro",-23.762406,-46.685676
3014830,"R. Cel. João Cabanas, 510","",-23.764190,-46.687938
3014831,"R. Cel. João Cabanas, 859","",-23.764046,-46.691199
3014833,"R. Sto. Antonio De Ossela, 475","",-23.750630,-46.677587
3014834,"R. Francisco Montesuma, 171","Ref.: Rua Francisco Inácio Solano",-23.743909,-46.665597
3014835,"R. Canário Belga, 10","",-23.746614,-46.662046
3014836,"R. Demas Zitto, 109","Ref.: Ao Lado Do Nº 109",-23.744479,-46.671267
3014839,"Av. Da. Belmira Marin, 3732","",-23.754997,-46.678718
3014840,"R. Gen. José De Oliveira Ramos, 58","Ref.: Rua Gen. Renato Varandas De Azevedo",-23.769244,-46.682715
3014841,"R. Gen. José De Oliveira Ramos, 63","Ref.: Rua Gen. Renato Varandas De Azevedo",-23.769238,-46.682647
3014842,"R. Opção Brasil Natal, 110","Ref.: Rua Canário Natal",-23.763221,-46.697901
3014843,"Estr. Do Schmidt, 50","",-23.779479,-46.675245
3014845,"Estr. Do Schmidt, 91","Ref.: Rua Andorinha",-23.778435,-46.676304
3014846,"Estr. Do Schmidt, 91","",-23.778429,-46.677774
3014848,"Estr. Do Schmidt, 48","",-23.778135,-46.680374
3014849,"Estr. Do Schmidt, 6","",-23.778645,-46.680673
3014850,"Av. Da. Belmira Marin, 3483","",-23.753765,-46.680755
3014851,"Av. Da. Belmira Marin, 3655","",-23.754645,-46.679723
3014852,"Av. Da. Belmira Marin, 1618","",-23.744511,-46.690460
3014853,"Pmv 37","Term. Grajaú Ref.: Tp N638-11 (noturna)",-23.736234,-46.696771
3107728,"R. Evaldo Calabrez, 708","Ref.: Rua Irmão Deodoro",-23.550645,-46.420611
3107754,"R. Saturnino Pereira, 297","",-23.546840,-46.411651
3115211,"Parada B - Meira Pena (sentido C/B)","R. Salvador Gianetti Ref.: Parada B - Meira Pena (sentido C/B)",-23.542829,-46.415340
3115213,"Terminal Estação Cptm Guaianazes Plat. B","",-23.542806,-46.416236
3115214,"Av. José Higino Neves","",-23.564615,-46.404224
3115215,"Estr. Itaquera-guaianazes, 2415","",-23.543107,-46.423680
3115216,"R. Jorge Maraccini Ponfilho, 57","",-23.564758,-46.397211
3115217,"R. Onofre Leite Meirelles","Ref.: Muro Da E.e. Aquilino Ribeiro",-23.562340,-46.406348
3115218,"Av. José Higino Neves, 800","Ref.: Rua Pedro Seabra - Lado Do Córrego",-23.564060,-46.405001
3115219,"Av. Miguel Achiole Da Fonseca, 1822","Ref.: Estrada Do Iguatemi",-23.560026,-46.406858
3115220,"Av. Miguel Achiole Da Fonseca, 1829","Ref.: Próximo A Estrada Do Iguatemi",-23.559910,-46.406827
3115221,"R. Cristovão De Araújo","Ref.: Hosp. Geral Jesus Teixeira",-23.553586,-46.404016
3115222,"Estr. De Poa, 17","",-23.545271,-46.408360
3115223,"Terminal Estação Cptm Guaianazes Plat. B","",-23.543019,-46.415440
3115225,"R. Cristovão De Araújo","",-23.553395,-46.403867
3115226,"R. Jorge Maraccini Ponfilho, 57","",-23.564555,-46.397174
3115227,"R. Jorge Maraccini Ponfilho, 57","",-23.564604,-46.397232
3115228,"Estr. De Poa, 696","Ref.: Oposto Ao Fórum De Guaianazes",-23.545960,-46.402970
3115229,"Estr. De Poa, 696","Ref.: Junto Ao Fórum De Guaianazes",-23.546087,-46.402719
3115230,"R. Aldeia Maria","Ref.: Rua Santana Dos Olhos Dagua",-23.560368,-46.423032
3115233,"R. Clarinia, 53","Ref.: Antes Do Centro De Guaianases",-23.544820,-46.408805
3115234,"R. Hipólito De Camargo, 464","",-23.543348,-46.415533
3115235,"R. Primavera","",-23.563158,-46.394041
3115236,"Terminal Estacao Cptm Guaianazes Plat. A","",-23.542903,-46.416430
3115238,"R. Dr. Francisco Bueno Torres, 270","Ref.: Rua Alfredo Da Ressureição Rabaçal",-23.568218,-46.397102
3115240,"Terminal Estacao Cptm Guaianazes Plat. A","",-23.543061,-46.415535
3203780,"Tr. Somos Todos Iguais, 380","Ref.: Trav. Anos Dourados / Trav. Axé Babá",-23.608675,-46.452191
3203782,"Tr. Somos Todos Iguais, 622","Ref.: Tv Jambalaya",-23.607826,-46.448405
3203783,"Tr. Somos Todos Iguais, 1000","Ref.: Trav. Valdo Do Imperador / Trav. Veneza Do Amor",-23.607133,-46.444692
3214574,"R. Anecy Rocha, 1131","",-23.610100,-46.434841
3214579,"R. Barros Penteado, 425","Ref.: Tp 4012-10",-23.598107,-46.440925
3214582,"R. Vlademir Cardoso Goncalves, 0","",-23.611901,-46.416235
3214587,"R. Confederação Dos Tamoios, 6","",-23.595535,-46.444248
3214588,"R. Lucas Fildes, 6","Ref.: Av. Ragueb Chohfi",-23.596823,-46.436436
3214589,"Av. Bento Guelfi, 1016","",-23.602969,-46.430628
3214591,"Tr. Tardes De Lindoia","",-23.612876,-46.444475
3214593,"Estr. Vovó Dona Carolina, 2012","",-23.609976,-46.407888
3214594,"Av. Recanto Verde Sol","Ref.: Próximo A Rua Recanto Verde Do Sol",-23.613338,-46.423107
3214595,"R. Madureira Calheiros, 30","",-23.610009,-46.453535
3214596,"Tr. Sandália Cor De Prata, 27","",-23.608371,-46.454176
3214598,"Av. Bento Guelfi","Ref.: Acesso Entrada De Alunos Céu Jd. Alto Alegre",-23.606937,-46.427412
3214599,"Tr. Vereda Tropical, 330","",-23.606777,-46.443676
3214600,"Tr. Somos Todos Iguais, 817","Ref.: Rua Rainha Do Mar / Rua Pombinha Brnca",-23.607258,-46.445549
3214601,"Tr. Somos Todos Iguais, 691","Ref.: Trav. Paz Na Terra / Trav. Metamorfose",-23.607534,-46.446803
3214602,"Tr. Somos Todos Iguais, 411","Ref.: Travessa Detalhes",-23.607977,-46.449505
3214603,"Tr. Somos Todos Iguais","Ref.: Trav. Argumento",-23.608643,-46.452742
3214604,"Tr. Somos Todos Iguais, 290","Ref.: Trav Capinteiro Do Universo / Travessa Nbate Coração",-23.608329,-46.451177
3214606,"Tr. Sem Nome","Ref.: Tr. Pé De Manacá",-23.613268,-46.444159
3214608,"Av. Ragueb Chohfi, 3797","",-23.594554,-46.448216
3214610,"Tr. Sabor De Mim","",-23.606931,-46.451216
3305189,"R. Sussuarana, 260","Ref.: R Jamboacu",-23.606017,-46.608843
3305203,"R. Salvador Simões, 1033","Ref.: Av Dr.gentil De Moura",-23.602793,-46.613680
3305204,"R. Visc. De Pirajá, 462","Ref.: 463 Av Dr.gentil De Moura",-23.602300,-46.612830
3305545,"Av. Ricardo Jafet, 745","Ref.: R Sao Silvino",-23.583629,-46.616160
3305559,"Av. Ricardo Jafet, 1833","",-23.589298,-46.619870
3305594,"R. Cipriano Barata, 523","Ref.: R Guarda De Honra",-23.574006,-46.606453
3305635,"Av. D. Pedro I - Pista Local, 798","Ref.: R. Guedes Nogueira",-23.572482,-46.611115
3305721,"R. Agostinho Gomes, 3426","Ref.: R Comandante Taylor",-23.601066,-46.602821
3305749,"Alto Do Ipiranga","",-23.602126,-46.612638
3305759,"Av. Dr. Gentil De Moura, 277","Ref.: Est. Alto Do Ipiranga - B/C",-23.602437,-46.612713
3305766,"R. Agostinho Gomes, 3426","",-23.601266,-46.602788
3305795,"Cay B/C","Expr. Tiradentes, 8000 Ref.: 8000 - Estacao Cay Bc",-23.574436,-46.603153
3305796,"N.sra Aparecida B/C","Expr. Tiradentes, 9000 Ref.: 9000 - Estacao Nossa Senhora Da Aparecida (lecor) Bc",-23.591353,-46.597779
3305797,"Grito B/C","Expr. Tiradentes, 10000 Ref.: 10000 - Estacao Grito Bc",-23.598138,-46.597172
3305799,"Cay C/B","Expr. Tiradentes, 8000 Ref.: 8000 - Estacao Cay Cb",-23.574453,-46.603180
3305800,"N.sra Aparecida C/B","Expr. Tiradentes, 9000 Ref.: 9000 - Estacao Nossa Senhora Da Aparecida (lecor) Cb",-23.591347,-46.597851
3305801,"Grito C/B","Expr. Tiradentes, 10000 Ref.: 10000 - Estacao Grito Cb",-23.598148,-46.597237
3305845,"Sacoma","",-23.601542,-46.603125
3305852,"Av. Pres. Wilson, 4772","",-23.593395,-46.590661
3305853,"Av. Pres. Wilson","Ref.: Próximo A Estação Tamanduateí Do Metrô",-23.593398,-46.590448
3305856,"Tamanduatei","",-23.592984,-46.589602
3305858,"R. Silva Bueno, 379","Ref.: Rua Dom José De Alarcão",-23.581305,-46.602218
3305860,"R. Auriverde, 1872","Ref.: Rua Brás De Pina",-23.602374,-46.585943
3305861,"R. Auriverde, 672","Ref.: Rua Pedro Fachini",-23.593880,-46.593214
3305862,"R. Auriverde, 1092","",-23.596902,-46.590665
3305864,"R. Arciprestes Ezéquias, 576","Ref.: Rua Debret",-23.590687,-46.618646
3305870,"R. Michele Príncipe","Ref.: Rua Anita Tagliaferri",-23.608646,-46.580837
3305872,"R. Dr. Mário Vicente, 680","",-23.589538,-46.613399
3305873,"R. Dr. Mário Vicente, 900","",-23.591580,-46.613195
3305874,"R. Con. Januário, 267","",-23.574625,-46.604956
3305876,"R. Auriverde, 1099","Ref.: Rua Vemag",-23.596886,-46.590556
3305877,"Av. D. Pedro I - Pista Central, 647","Ref.: Rua Lima Barreto",-23.570757,-46.611039
3305879,"Av. D. Pedro I - Pista Central, 1102","Ref.: Rua Ouvidor Portugal",-23.575209,-46.610739
3305881,"Terminal Sacomã","",-23.602998,-46.602819
3305882,"Terminal Sacomã - Plat. 5","Ref.: Rua Bom Pastor Com A Rua Silva Bueno",-23.602921,-46.602319
3305883,"Terminal Sacomã - Plat. 6","",-23.603445,-46.602676
3305884,"Terminal Sacomã - Plat. 6","",-23.603068,-46.602355
3305885,"Terminal Sacomã - Plat. 6","",-23.602915,-46.602220
3305886,"Terminal Sacomã - Plat. 7","",-23.602919,-46.602070
3305887,"Terminal Sacomã - Plat. 7","",-23.603027,-46.602142
3305889,"Av. D. Pedro I - Pista Local, 819","",-23.572626,-46.610749
3305890,"Av. D. Pedro I - Pista Central","",-23.570399,-46.611221
3305892,"R. Agostinho Gomes, 43","R. Agostinho Gomes, 43 Ref.: Entre As Ruas Dos Sorocabanos E Dos Ituanos",-23.580549,-46.604749
3305893,"R. Francisco Peres","Ref.: Terminal Sacomã",-23.604010,-46.604222
3305894,"R. Cipriano Barata, 2741","Ref.: Rua Labatut",-23.593658,-46.604657
3305895,"R. Lino Coutinho, 2","Ref.: Metrô Sacomã",-23.601730,-46.601474
3305896,"R. Bom Pastor, 2661","Ref.: Rua Do Grito",-23.600002,-46.604611
3305897,"R. Aída","Ref.: Av. Pres. Wilson",-23.594844,-46.590614
3305899,"R. Lino Coutinho, 150","",-23.584413,-46.603195
3305900,"R. Cipriano Barata, 240","",-23.571491,-46.606727
3305901,"Av. Pres. Wilson, 557","Ref.: Estação Cptm Móoca",-23.581808,-46.598016
3305902,"R. Leais Paulistanos","",-23.577984,-46.602058
3305903,"R. Marcos Portugal, 98","Ref.: Av. Gentil De Moura",-23.602230,-46.605785
3305904,"R. Costa Aguiar, 660","Ref.: Museu Do Ipiranga",-23.579819,-46.607100
3305906,"Terminal Sacomã - Plat. 5","Ref.: Rua Bom Pastor",-23.603251,-46.602606
3305907,"Terminal Sacomã - Plat. 5","Ref.: Rua Bom Pastor",-23.603114,-46.602482
3305908,"Terminal Sacomã - Plat. 5","Ref.: Rua Bom Pastor",-23.602820,-46.602233
3305910,"Terminal Sacomã - Plat. 6","Ref.: Rua Bom Pastor",-23.603176,-46.602450
3305911,"Terminal Sacomã - Plat. 6","Ref.: Rua Bom Pastor",-23.603339,-46.602585
3405936,"R. Gomes De Carvalho, 1212","Ref.: R. Lourenço Marques",-23.597155,-46.685043
3406078,"R. Roque Petrella, 58","",-23.621865,-46.684904
3406448,"Av. Pres. Juscelino Kubitschek, 626","Ref.: R Joao Cachoeira",-23.588659,-46.676087
3406463,"Av. Brig. Faria Lima, 3999","Ref.: Av Pres.juscelino Kubitschek",-23.590733,-46.681091
3406544,"Av. Cidade Jardim, 513","Ref.: Av Brg.faria Lima",-23.581920,-46.684813
3406583,"Av. Morumbi, 8575","Ref.: Rdas Margaridas",-23.622211,-46.687792
3406585,"Av. Morumbi, 8045","Ref.: R Gabriel De Lara",-23.620088,-46.693138
3406598,"Vivo","Av. Dr. Chucri Zaidan, 110 Ref.: Lgo. Los Andes",-23.620053,-46.698458
3406604,"C E C","Av. Dr. Chucri Zaidan, 230 Ref.: R. Baltazar Fernandes",-23.616736,-46.696786
3406606,"Av. Jurubatuba, 374","Ref.: R Alvaro Rodrigues",-23.618503,-46.696279
3406621,"Av. Das Nações Unidas, 12495","Ref.: R Florida",-23.606759,-46.696922
3406622,"Av. Eng. Luiz Carlos Berrini, 1001","Ref.: Av Pe.antonio Jose Dos Santos",-23.605590,-46.692900
3406623,"Av. Eng. Luiz Carlos Berrini, 828","Ref.: R. Irma Gabriela",-23.604166,-46.692644
3406633,"Av. Eng. Luiz Carlos Berrini, 437","Ref.: Praça Prof. José Lannes",-23.600662,-46.691177
3406907,"Parada J.k.  B/C","Av. Sto. Amaro Ref.: J.k. B/C - Tunel Takeharu Akagawa",-23.585581,-46.670796
3406928,"Roberto Marinho C/B 1","Av. Sto. Amaro, 3926 Ref.: Roberto Marinho (C/B - Parada 1)",-23.618013,-46.681582
3406930,"Roberto Marinho B/C 1","Av. Sto. Amaro Ref.: Roberto Marinho (B/C - Parada 1)",-23.619927,-46.682789
3406947,"R. Gomes De Carvalho, 1666","Ref.: Al. Raja Gabaglia",-23.595277,-46.689083
3407008,"Av. Morumbi, 8860","Ref.: Av. Sto. Amaro",-23.622878,-46.685426
3407024,"Av. Eng. Luiz Carlos Berrini, 1618","Ref.: R. Arizona / Condominio Max Haus",-23.610858,-46.695012
3407025,"Av. Eng. Luiz Carlos Berrini, 1777","Ref.: R. Michel Faraday",-23.612202,-46.695242
3407027,"Av. Dr. Chucri Zaidan, 75","Ref.: Av. Morumbi",-23.618258,-46.697442
3407030,"Av. Portugal, 1262","Ref.: Av. Jornalista Roberto Marinho",-23.618673,-46.685216
3407037,"Av. Eng. Luiz Carlos Berrini, 10","Ref.: Tp - 5127-10",-23.597145,-46.691529
3407041,"Lat. Da Ponte Do Morumbi, 0","",-23.618638,-46.698734
3407061,"Lat. Da Ponte Do Morumbi","",-23.618600,-46.698959
3407064,"R. Joaquim Floriano, 308","",-23.584106,-46.673040
3407074,"Parada Jk","Av. Pres. Juscelino Kubitschek, 28",-23.585195,-46.671268
3407076,"Parada Marina Cintra - B/C","Av. Nove De Julho, 4835",-23.577184,-46.672377
3407077,"Parada Dr. Renato Paes De Barros - B/C","Av. Nove De Julho, 5229",-23.578789,-46.675713
3407078,"Parada João Cachoeira - B/C","Av. Nove De Julho, 5679",-23.580595,-46.679529
3407079,"Av. Eng. Luiz Carlos Berrini, 1306","Ref.: Rua Geraldo Flausino Gomes",-23.608188,-46.694008
3407080,"Av. Henrique Chamma","",-23.588886,-46.688101
3407081,"R. Gomes De Carvalho, 250","Ref.: R. Baluarte",-23.601313,-46.676005
3407082,"Av. Portugal, 150","Ref.: Lateral Do Condomínio Atlanta",-23.610954,-46.677949
3407083,"Parada Tabapuã","R. Brig. Haroldo Veloso",-23.586065,-46.687008
3407085,"R. Tabapuã, 1386","",-23.585291,-46.683886
3407086,"R. Gomes De Carvalho, 1581","Ref.: R. Fidencio Ramos/r. Tenerife",-23.595803,-46.688081
3407087,"R. Olímpiadas","Ref.: R. Quata/r. Michel Milan",-23.595226,-46.683337
3407093,"R. Michel Milan","",-23.596244,-46.681078
3511784,"R. Jorge Rodrigues De Niza, 146","",-23.498821,-46.370100
3511785,"R. Jorge Rodrigues De Niza, 705","",-23.498402,-46.369807
3511806,"R. Carmine Monetti, 812","Ref.: R Colonia D'assuncao",-23.489648,-46.379813
3511818,"R. Dr. José Pereira Gomes, 748","Ref.: R Antonio D'anin",-23.492318,-46.379535
3511847,"Av. Itaim, 5","Ref.: Av Mal.tito",-23.493096,-46.390108
3511854,"R. Valente De Novais, 457","Ref.: Av Br. De Alagoas / R Albuquerque Pinheiro",-23.500213,-46.393591
3514892,"Estr. D. João Neri, 678","Ref.: Rmanuel Barbalho De Lima/ Ralarico De Toledo Piza",-23.501098,-46.406117
3514897,"R. Enseada Das Garoupas, 558","Ref.: R Alfredo Moreira Pinto / R Dr. Durval Vilalva",-23.501199,-46.401039
3515035,"R. Tibúrcio De Souza, 2083","Ref.: R Alberto Melo",-23.514458,-46.390176
3515078,"Av. Tomé Dias Laço, 128","Ref.: Av Academia De Sao Paulo",-23.502393,-46.384607
3515150,"R. Dr. José Pereira Gomes, 653","Ref.: R Monsenhor Salim",-23.492204,-46.380399
3515152,"R. Marco Antônio Setti, 382","Ref.: R Des Jose Cavalcanti Silva",-23.507681,-46.371735
3515193,"R. Francisco De Sá Peixoto","Ref.: Rua Albardão",-23.495110,-46.402780
3515198,"R. Manoel Alvares Pimentel, 1350","Ref.: Próximo A Rua Tiburcio De Souza.",-23.521096,-46.386945
3515202,"R. Manuel Rodrigues Santiago","",-23.512540,-46.375387
3515230,"Jardim Romano","",-23.484643,-46.385164
3515239,"R. Colônia D'assunção, 151","Ref.: Rua Décio De Toledo Leite",-23.484749,-46.383795
3515265,"Aracaré","",-23.500105,-46.339012
3515266,"Calmon Viana","",-23.525169,-46.333921
3515272,"R. Ilha Do Encanto, 1783","R. Ilha Do Encanto, 1783 Ref.: Rua Cornelio De Arzão",-23.517353,-46.395801
3515277,"R. Djalma De Andrade, 69","R. Djalma De Andrade, 69 Ref.: Oposto Ao 67/69",-23.502682,-46.375673
3515281,"Av. Mal. Tito, 4779","",-23.496583,-46.392894
3515283,"Ac. A Estação Jd. Romano Lado Sul","",-23.484794,-46.384848
3515284,"R. Estudantes Da China, 517","Ref.: Oposto A Fábrica De Cultura",-23.501266,-46.371803
3515285,"R. Estudantes Da China, 518","Ref.: Próximo A Fábrica De Cultura",-23.501342,-46.371806
3515286,"R. Manuel Rodrigues Santiago, 21","Ref.: Rua Itajuibe",-23.515116,-46.380658
3515287,"R. Manuel Rodrigues Santiago, 89","Ref.: Próximo A Rua Itajuíbe",-23.513409,-46.379980
3515288,"R. Manuel Rodrigues Santiago, 1134","Ref.: Próximo A Rua Itajuíbe",-23.513180,-46.379658
3515295,"R. José Alves Coelho","",-23.513480,-46.385718
3515296,"R. Felizardo Ribeiro Lisboa, 188","Ref.: Próximo A Av. Fernando Pacheco Jordão",-23.502280,-46.380866
3515297,"R. José Alves Coelho","",-23.513562,-46.385935
3515298,"R. Des. Breno Caramuru Teixeira, 543","Ref.: Próximo A Av. Kemel",-23.505985,-46.371980
3515300,"R. Vitoria Do Espirito Santo, 405","Ref.: Rua José Alves Irmão - Lateral Do Edifício Residencial Nº 405 - Tp 2666-10",-23.518390,-46.391609
3515301,"R. Antônio João De Medeiros, 16","Ref.: Próximo A Rua Tiburcio De Souza",-23.502552,-46.397708
3515303,"R. Manoel Lemes Da Silva, 892","Ref.: Rua Maximiliano Correia Dos Santos",-23.494641,-46.376796
3515305,"R. Antônio João De Medeiros, 6","Ref.: Rua Tiburcio De Souza/rua Manuel De Aguiar Mendonça",-23.502387,-46.397696
3515306,"R. Lírio D'água, 96","R. Lírio D'água, 96 Ref.: (oposto Ao Nº 84)epróximo Da Rua Jasmim Do Imperador.",-23.509517,-46.389412
3515307,"R. Marco Antônio Setti, 787","Ref.: Próximo A Rua Mario Antunes Maciel Ramos",-23.506759,-46.368538
3515308,"R. Cornélio De Arzão, 156","Ref.: Próximo A Rua Antonio Leme Da Guerra",-23.515508,-46.395760
3515309,"R. Manuel Rodrigues Santiago, 113","Ref.: Próximo A Rua Sérgio Hingst",-23.511943,-46.378990
3515310,"R. Manuel Rodrigues Santiago, 113","Ref.: Próximo A Rua Sérgio Hingst",-23.512261,-46.379103
3515312,"R. Paulo Tapajós","Ref.: Praça 30 De Junho",-23.504866,-46.377344
3515313,"R. Paulo Tapajós","",-23.504867,-46.377104
3515314,"Av. Kemel Addas, 1199","",-23.502344,-46.367130
3515315,"R. João Batista De Godoi, 683","",-23.493384,-46.373355
3515316,"R. João Batista De Godoi, 182","",-23.490125,-46.376123
3515317,"R. Jorge Rodrigues De Niza, 734","",-23.498001,-46.369821
3515318,"R. João Batista De Godoi, 197","",-23.490105,-46.376068
3515319,"R. João Batista De Godoi, 695","",-23.493648,-46.373159
3515320,"R. Jorge Rodrigues De Niza, 754","",-23.497887,-46.369834
3515321,"R. João Batista De Godoi, 1000","Ref.: R. Amilcare Forghieri",-23.496159,-46.371631
3515322,"R. João Batista De Godoi, 1021","Ref.: Próximo A Rua Bernardino Borlasca",-23.496243,-46.371485
3515323,"R. Des. Octávio Egydio Roggiero, 1","Ref.: Proximo A Rua Des. Fernando De Albuquerque Prado",-23.510175,-46.369850
3515324,"R. Des. Fausto Whitaker Machado Alvim, 350","",-23.503738,-46.368123
3515325,"R. Des. Oswaldo Aranha Bandeira De Mello, 332","",-23.504719,-46.369779
3515326,"R. Renata Agondi, 51","Ref.: Proximo A Rua Carlos Aguiar",-23.503322,-46.379856
3515327,"R. Domingos De Martins Pacheco, 334","Ref.: R. Anastácio De Trancoso",-23.510198,-46.383497
3515329,"R. Juraraterê, 97","",-23.501410,-46.399459
3515330,"R. Antônio João De Medeiros, 470","",-23.506183,-46.398108
3515331,"Av. Mal. Tito, 5955","",-23.493182,-46.389002
3607948,"R. Damásio Pinto, 2042","Ref.: Tv Anibal Quirino Xavier",-23.531405,-46.430929
3608104,"R. Fontoura Xavier, 1179","Ref.: R Venturosa",-23.544673,-46.452741
3608123,"Av. Itaquera, 8293","Ref.: Senac - Lado Oposto",-23.539885,-46.456754
3608144,"R. Prof. Leonídio Allegreti","",-23.538166,-46.441893
3608234,"Arena Paulista","R. Dr. Luiz Aires Ref.: Av. Pde. Estanislau De Campos / Av. Engº Adervam Machado",-23.543563,-46.470519
3608479,"R. Virgínia De Miranda, 323","Ref.: R Cap.manuel Guimaraes",-23.525330,-46.451191
3608745,"Av. Musgo De Flor, 0","Ref.: R Bertalha/ Av Imperador",-23.515584,-46.454810
3608865,"Parada Metro Itaquera","R. Dr. Luiz Aires Ref.: Shopping Metro Itaquera",-23.543219,-46.471270
3608883,"Corinthians-itaquera","",-23.541989,-46.471304
3608892,"Av. Musgo De Flor, 4","Ref.: Rua Guaiaçã / Rua Jacuanga",-23.519075,-46.455446
3608893,"R. Br. De Cacela, 7","Ref.: Continuação Da Rua Ribeirão Jacu - Esquina Com A Rua Rainha Da Noite",-23.518629,-46.456249
3608917,"Parada Poupatempo","R. Poupatempo Ref.: Poupa Tempo Itaquera",-23.541826,-46.472547
3608920,"Plataforma A - Et. Itaquera","Et. Itaquera Plat. A",-23.534391,-46.453165
3608921,"R. Dr. Manoel Guimarães, 252","Ref.: Próximo A Av. Pe. Gregório Mafra",-23.523346,-46.451051
3608922,"Av. Pe. Gregório Mafra, 426","Ref.: Próximo A Estrada Do Imperador",-23.524114,-46.453177
3608924,"R. Flor De Santa Cruz, 318","Ref.: Próximo A Rua Nicolau Campanella",-23.519713,-46.447756
3608925,"R. Cuim, 309","Ref.: Rua Mandacaia",-23.528318,-46.472869
3608926,"R. Flor De Santa Cruz, 238","Ref.: Próximo A Rua Nicolau Campanella",-23.519746,-46.447462
3608927,"R. Tupiratins, 2430","Ref.: Rua Yoshio Takata",-23.522785,-46.452715
3608928,"R. Sestílio Melani, 466","",-23.527637,-46.462049
3608929,"R. Nicolau Campanella, 234","",-23.518383,-46.445501
3608930,"R. Edmundo De Paula Coelho, 26","",-23.519396,-46.469740
3608931,"R. Tantas Palavras, 182","",-23.520671,-46.468039
3608932,"R. Tantas Palavras, 10","",-23.522642,-46.469445
3608933,"R. Tantas Palavras","",-23.522649,-46.469364
3608934,"R. Edmundo De Paula Coelho","",-23.519566,-46.469367
3608935,"Av. Pires Do Rio, 3368","Ref.: R Vitor José De Castro / R Etelvino Gama Sobrinho",-23.526126,-46.445866
3608936,"Av. Pires Do Rio, 3515","Ref.: Trav Califa De Bagda / R Antônio Moura Andrade",-23.527940,-46.447377
3608940,"Estr. Do Imperador, 3696","Ref.: Av. Coronel Alves E Rocha Silva",-23.519006,-46.469555
3608941,"Estr. Do Imperador, 1510","Ref.: Rua S. José Do Limoeiro",-23.515458,-46.461885
3608942,"Estr. Do Imperador, 3688","Ref.: Rua Antonio Nunes",-23.516988,-46.468279
3608943,"Estr. Do Imperador, 3589","Ref.: Rua Miguel De Castro/rua Nigela",-23.515860,-46.465491
3608944,"Estr. Do Imperador, 5204","Ref.: Rua Das Uaiaras/rua Sabugueiro",-23.515027,-46.454025
3608946,"Estr. Do Imperador, 1525","Ref.: Próximo A Rua Abieiros",-23.515508,-46.461733
3608947,"Av. Pe. Gregório Mafra, 1185","Ref.: Próximo A Estrada Do Imperador",-23.516807,-46.451395
3608949,"Av. Das Alamandas, 850","Ref.: Próximo A Pça. Jandaíra",-23.528393,-46.465364
3608950,"R. Tupiratins, 26","Ref.: Av. Pe. Gregório Mafra/rua Itaguatins",-23.522791,-46.452750
3608951,"Av. José Pinheiro Borges","Ref.: R. Renzo Baldini",-23.525282,-46.435635
3608952,"Av. José Pinheiro Borges","Ref.: Próximo A Rua Bento Munhoz",-23.526860,-46.432300
3608953,"Av. José Pinheiro Borges","Ref.: Próximo Ao Posto Shell",-23.525984,-46.437531
3608954,"Av. José Pinheiro Borges","Ref.: Próximo A Rua Alzira Livramento Marzagão",-23.529824,-46.447773
3608955,"R. Arbela, 309","Ref.: Rua Terra Brasileira",-23.525927,-46.469735
3608957,"R. Nabiça, 37","Ref.: Próximoa Rua Virginia De Miranda",-23.521783,-46.446697
3608958,"R. Nabiça, 6","Ref.: Rua Virgínia De Miranda/rua Orlando Fratucelli",-23.521959,-46.446690
3608959,"Av. Jacu-pêssego/nova Trabalhadores, 1923","Ref.: Próximo A Rua Oscar Nogueira",-23.544632,-46.447016
3608960,"R. Augusto Carlos Bauman, 851","Ref.: Oposto A Subprefeitura De Itaquera",-23.532025,-46.447044
3608963,"Av. José Pinheiro Borges","Ref.: Próximo A Rua Santana Do Agreste",-23.540321,-46.467129
3608965,"R. Victório Santim, 260","Ref.: Igreja Batista Itaquera",-23.538234,-46.452615
3608968,"Et. Itaquera Plat. B","",-23.534551,-46.453268
3608969,"Et. Itaquera Plat. C","",-23.535248,-46.454184
3608970,"Et. Itaquera Plat. D","",-23.535283,-46.454142
3608971,"Et. Itaquera Plat. D","",-23.535025,-46.453866
3608972,"Et. Itaquera Plat. D","",-23.535161,-46.454017
3608974,"Et. Itaquera Plat. D","",-23.535276,-46.454097
3608975,"Parada Poupatempo","R. Poupatempo",-23.541778,-46.472072
3608983,"R. João Radaic Benegulo","",-23.535641,-46.453939
3608984,"R. Arbela, 311","Ref.: R. Terra Brasileira",-23.525530,-46.470253
3608985,"Terminal Metrô Itaquera Pl. A","",-23.541902,-46.471377
3608986,"Terminal Metrô Itaquera Pl. A","",-23.541882,-46.471150
3608988,"R. Das Aveleiras, 97","Ref.: Rua Guapeba",-23.517551,-46.453334
3608989,"Av. Dos Campanellas, 2487","Ref.: R. Antonio Carlos De Oliveita Cesar",-23.536303,-46.455696
3608991,"R. Lagoa Salgada","Ref.: E.t. Itaquera",-23.535009,-46.454459
3608992,"Fatec/etec","R. Dr. Luiz Aires Ref.: Após Av. Engº Adervan Machado",-23.543292,-46.469065
3608994,"Terminal Mêtro Itaquera Pl. C","",-23.542697,-46.471353
3608995,"Terminal Mêtro Itaquera Pl. C","",-23.542677,-46.471085
3608997,"Parada Exclusiva 2522-10","Term. Mêtro Itaquera Pl. E",-23.542890,-46.471481
3608998,"Parada Exclusiva - 273f-10","Term. Mêtro Itaquera Pl. E",-23.542867,-46.471321
3608999,"Parada Exclusiva - 374m-10","Term. Mêtro Itaquera Pl. E",-23.542841,-46.471120
3609000,"Parada Exclusiva - 273r-42","Term. Mêtro Itaquera Pl. E",-23.542819,-46.470927
3609001,"Terminal Mêtro Itaquera Pl. C","",-23.542640,-46.470685
3609002,"Terminal Mêtro Itaquera Pl. C","",-23.542642,-46.470653
3609004,"Av. José Pinheiro Borges, 60","",-23.537230,-46.424874
3609005,"Terminal Mêtro Itaquera Pl. D","",-23.542806,-46.471356
3609006,"Terminal Mêtro Itaquera Pl. D","",-23.542768,-46.471123
3609007,"Terminal Mêtro Itaquera Pl. D","",-23.542736,-46.470837
3609008,"Terminal A. E. Carvalho","",-23.517644,-46.475981
3609009,"R. Amalia De Faria, 15","Ref.: R Virginia De Miranda",-23.526311,-46.452710
3609010,"R. Virgínia De Miranda, 138","",-23.526342,-46.452585
3609011,"R. Catarina Lopes, 38","Ref.: Nice Cabeleireiros",-23.531525,-46.458269
3609014,"Terminal A. E. Carvalho, 0","Term. A. E. Carvalho",-23.517964,-46.475918
3702306,"R. Prof. Nelson De Sena, 206","Ref.: Rua Ruy De Azevedo",-23.658477,-46.653973
3702314,"R. Prof. Nelson De Sena, 762","Ref.: R Artur Antunes Maciel",-23.663324,-46.652943
3702382,"R. Rolando Curti, 80","Ref.: Rua Gregório Guitierres",-23.672289,-46.637771
3702386,"R. Hugo Vitor Silva, 570","Ref.: R Spedro Do Sul",-23.667990,-46.642401
3702407,"Av. Benigno Carrera, 240","Ref.: R Stoestevao",-23.660884,-46.651680
3702421,"Av. Benigno Carrera, 513","Ref.: Rua Luisa Alvares",-23.661643,-46.649618
3702422,"Av. Benigno Carrera, 526","Ref.: Av Rodrigues Montemor",-23.661770,-46.649468
3702423,"Av. Benigno Carrera, 340","",-23.661067,-46.651209
3702446,"R. Das Guassatungas, 75","Ref.: R Hildebrando Silveira",-23.658931,-46.643589
3702451,"Av. Rodrigues Montemor, 280","",-23.662743,-46.647703
3702469,"R. Cde. Moreira Lima, 722","Ref.: R Adelino Fontora",-23.659595,-46.661639
3702648,"Av. Pedro Bueno, 552","Ref.: R Perdigao Nogueira",-23.635315,-46.648466
3702649,"Av. Pedro Bueno, 571","Ref.: R Mnsbasilio Pereira",-23.635623,-46.648655
3702657,"Av. Dr. Hugo Beolchi, 590","",-23.632066,-46.641549
3702664,"R. Soares Avelar, 952","Ref.: Rua Hercílio Pereira",-23.630268,-46.634958
3702665,"Av. Leonardo Da Vinci, 1158","Ref.: Rua Conduru",-23.639750,-46.640456
3702669,"R. Bicudo De Brito, 181","Ref.: Av Agua Funda",-23.638720,-46.636639
3702671,"R. Bicudo De Brito, 398","Ref.: Av Leonardo Da Vinci",-23.639361,-46.634551
3702679,"R. Eduardo Pereira, 217","Ref.: R Opixe",-23.632873,-46.631451
3702680,"R. Eduardo Pereira, 240","Ref.: Av Diederichsen",-23.633149,-46.631462
3702681,"R. Eduardo Pereira, 103","Ref.: R Barreto Muniz",-23.631933,-46.631652
3702682,"R. Eduardo Pereira, 118","Ref.: R Itacapu",-23.632098,-46.631753
3702683,"R. Soares Avelar, 784","Ref.: Rua Dona Julia",-23.630337,-46.636363
3702703,"Av. Lino De Almeida Pires, 254","Ref.: Rua General Gastão Goulart",-23.641118,-46.633183
3702704,"Av. Eng. George Corbisier, 168","Ref.: R Srgantenor Teixeira",-23.637736,-46.641851
3702706,"Av. Eng. George Corbisier, 151","Ref.: Av Engarmando De Arruda Pereira",-23.638196,-46.641681
3702711,"Av. Eng. Armando De Arruda Pereira, 1354","Ref.: Av Galvaldomiro De Lima",-23.639228,-46.641417
3702714,"Av. Eng. Armando De Arruda Pereira, 1577","Ref.: R Mucurui",-23.640709,-46.641265
3702715,"Av. Eng. Armando De Arruda Pereira, 1558","Ref.: Rua Farjalla Koraicho",-23.641186,-46.641437
3702727,"R. Taciba, 243","Ref.: R Vitoriana",-23.643178,-46.654803
3702728,"R. Taciba, 185","Ref.: R Almaquio Dinis",-23.643459,-46.654332
3702729,"R. Taciba, 50","Ref.: R Vitoriana",-23.644504,-46.653380
3702730,"R. Taciba, 29","Ref.: R. Iboti",-23.644844,-46.653307
3702739,"Av. Eng. George Corbisier, 1014","Ref.: R Carmine Di Genio",-23.645842,-46.645165
3702740,"Av. Eng. George Corbisier, 1095","Ref.: Avdos Jequitibas",-23.646212,-46.644855
3702742,"R. Farjalla Koraicho, 632","Ref.: 633 Av Engarmando De Arruda Pereira",-23.644644,-46.641453
3702745,"Av. Eng. George Corbisier, 643","Ref.: Rdas Perolas",-23.642126,-46.644094
3702746,"Av. Eng. Armando De Arruda Pereira, 1767","Ref.: Rua Antônio André De Sá Filho",-23.643305,-46.641191
3702747,"Av. Francisco De Paula Quintanilha Ribeiro, 0","Ref.: Avdos Jequitibas",-23.646860,-46.640915
3702748,"Av. Eng. Armando De Arruda Pereira, 1897","Ref.: Rua Nelson Fernandes - Metrô Jabaquara",-23.646151,-46.640576
3702754,"R. Nelson Fernandes, 301","Ref.: Rua Anita Costa",-23.646818,-46.638399
